commonName,lat,lon,is_pure_bus,id,lines
Abbeville Road,51.45264,-0.14249,1,490004889E,"355, 50"
Abbeville Road,51.45273,-0.1429,1,490004889W,"355, 50"
Abbey Lane,51.53378,-0.00718,1,490003025W,"108, 25, 276, 425, D8, N205, N25, N8"
Abbey Road,51.41598,-0.18575,1,490007938E,"131, 152, 200, 219, 57, 655, N155"
Abbey Road,51.41611,-0.18536,1,490007938F,"131, 152, 200, 219, 57, 655, N155"
Abbey Road,51.48939,0.12407,1,490006877S,"301, 469, B11"
Abbey Road,51.52935,-0.2699,1,490003028E,"187, 224, 226"
Abbey Road,51.53867,-0.27916,1,490003029W,112
Abbey Road,51.53918,-0.18908,1,490003027E,"31, N28, N31"
Abbey Road,51.53997,-0.18668,1,490003027W,"31, N28, N31"
Abbey Road Studios / Grove End Road,51.53244,-0.17784,1,490003030N,"139, 189"
Abbey School,51.54777,0.0928,1,490003032S,145
Abbey Sports Centre,51.53479,0.07971,1,490003033W,"287, 368, 62, 687"
Abbey Street,51.49818,-0.07922,1,490003035S,"188, 42, 78"
Abbey Street,51.49899,-0.07926,1,490003035N,"188, 42, 78"
Abbey Wood,51.491247,0.121057,0,HUBABW,"180, 229, 244, 301, 469, 472, 602, 669, B11, Elizabeth line, N1, SL3, Southeastern, Thameslink"
Abbey Wood / Florence Road,51.48969,0.1227,1,490006877L,"229, 301, 469, 602, 669, B11, SL3"
Abbey Wood Lane,51.52947,0.21338,1,490003037E,"165, 287, 652"
Abbey Wood Pumping Station,51.4975,0.1111,1,490003038E,469
Abbey Wood Pumping Station,51.49789,0.11256,1,490012529W,469
Abbey Wood Road,51.48934,0.12118,1,490003039E,"229, 244, 301, 469, 472, 602, 669, B11"
Abbey Wood Road,51.48936,0.12143,1,490003039G,"229, 244, 301, 469, 472, 602, 669, B11"
Abbey Wood Station,51.49163,0.12143,1,490001001Y,"180, 229, 244, 301, 469, 472, 602, 669, B11, N1, SL3"
Abbots Gardens,51.58919,-0.16985,1,490003043W,"143, 653, H3, N20"
Abbots Lane,51.50418,-0.08188,1,4900R0049J,"343, 381, 47, N199, N381"
Abbots Road,51.6079,-0.26537,1,490014306N1,
Abbots Way,51.39312,-0.04109,1,490003046W,"194, 356, 358"
Abbots Way,51.39323,-0.04143,1,490003046S,"194, 356, 358"
Abbotsbury Road,51.39513,-0.19282,1,490010026S2,470
Abbotsbury Road,51.39545,-0.19323,1,490010026N1,470
Abbotsford Avenue,51.58407,-0.09012,1,490003042S,"341, 67"
Abbotsford Avenue,51.58448,-0.08994,1,490003042N,"341, 67"
Abbott Road,51.51254,-0.00093,1,490003047W,"115, N15, N551"
Abbott Road,51.51281,-0.00104,1,490003047E,"115, 309, D8, N15, N551"
Abbott Road,51.51466,-0.00819,1,490003315I,D8
Abbotts Road,51.51192,-0.38252,1,490010341G,"207, 427, N207"
Abbs Cross Academy,51.55342,0.2062,1,490003050W,"165, 365, 372"
Abbs Cross Academy,51.55362,0.20641,1,490003050E,"165, 365, 372"
Abbs Cross Gardens,51.56228,0.21257,1,490003049S,"165, 365, 372"
Abbs Cross Lane,51.5628,0.21169,1,490003049W,"193, 248, 365"
Abbs Cross Lane,51.56309,0.21461,1,490003049E,"165, 193, 248, 365, 372"
Aberconway Road,51.40146,-0.19104,1,490010060W,"157, 45, 470, N133"
Abercorn Road,51.60599,-0.307,1,490003051E,186
Abercorn Road,51.60603,-0.30629,1,490003051W,186
Abercorn Road,51.60664,-0.20706,1,490003052N,221
Aberdeen Park,51.55056,-0.09823,1,490003053N,"19, 236, 263, 4, N19"
Aberdeen Road,51.36589,-0.09897,1,490013269S,"119, 166, 312, 405, 407, 412, 466, 468, 60, 645, N68"
Aberdeen Road,51.55306,-0.2425,1,490003054W,226
Aberdeen Road,51.55308,-0.24184,1,490003054E,226
Aberfoyle Road,51.41725,-0.1369,1,490003057S2,"45, 60, N133"
Abingdon Street,51.49759,-0.12561,1,490003059E,"87, N87"
Abinger Grove,51.48355,-0.03112,1,490007585E,"188, 199, 47, N1, N199"
Abinger Grove,51.48364,-0.03149,1,490007585W,"188, 199, 47, N1, N199"
Abinger Road,51.49679,-0.25005,1,490003060W,"272, 94"
Abinger Road,51.49697,-0.24967,1,490003060E,"272, 94"
Abney Park,51.56218,-0.07801,1,490004202W,"393, 476, 73, N73"
Abney Park,51.56226,-0.07828,1,490004202E,"393, 476, 73, N73"
Aboyne Road,51.56407,-0.25154,1,490007991E,112
Acacia Road,51.40667,-0.1536,1,490018877S,"463, 633"
Acacia Road,51.40679,-0.15385,1,490018877N,"463, 633"
Acacia Road,51.42588,-0.37256,1,490003064W,"111, R70"
Acacia Road,51.42592,-0.37204,1,490003064E1,"111, R70"
Acacia Road,51.51305,-0.27003,1,490003063S,"266, 440, N266"
Acacia Road,51.51368,-0.26979,1,490003063N,"266, 440, N266"
Academy Road / Shooters Hill Road,51.47201,0.05506,1,490012108N,122
Acer Avenue,51.52272,0.21748,1,490003066W,"165, 287, 652"
Acer Avenue,51.52283,0.21783,1,490003066E,"165, 287, 652"
Ackroyd Drive,51.51791,-0.03027,1,490013846N,"277, D6, D7, N277"
Ackroyd Drive,51.5202,-0.02611,1,490016349X,323
Ackroyd Drive,51.52037,-0.02613,1,490016349E,323
Acland Burghley School,51.55734,-0.13889,1,490008592E,4
Acorn Gardens,51.4098,-0.0812,1,490003069S,410
Acton Central Station,51.50647,-0.26405,1,490001002J,"207, 218, 70, N207, N266, N7, SL8"
Acton Central Station,51.50655,-0.26287,1,490001002H,"207, 218, 70, N207, N266, N7, SL8"
Acton Fire Station,51.50744,-0.27705,1,490003075Q,"70, E3, N11"
Acton Green,51.4961,-0.26447,1,490003076W,94
Acton Green,51.49638,-0.26425,1,490003076C,94
Acton Lane,51.52879,-0.26803,1,490003078S,"260, 440, 487"
Acton Lane,51.53441,-0.24808,1,490003079R,"220, 228, 266, 487, N266"
Acton Main Line Station,51.51759,-0.26592,1,490001003H,"266, 440, N266"
Acton Main Line Station,51.51785,-0.26631,1,490001003J,"260, 266, 440, N266"
Acton Market Place,51.50852,-0.27148,1,490000042Z2,
Acton Market Place,51.50914,-0.27173,1,490015559M,
Acton Old Town Hall,51.50628,-0.26815,1,490003088L,
Acton Old Town Hall,51.5067,-0.26891,1,490003083G,"207, 218, 266, 440, 70, E3, N11, N207, N266, N7, SL8"
Acton Old Town Hall,51.50675,-0.26725,1,490003083F,"207, 218, 266, 440, 70, E3, N11, N207, N266, N7, SL8"
Acton Old Town Hall / Salisbury Street,51.50588,-0.2674,1,490003088K,266
Acton Park,51.50637,-0.261,1,490003084W,"207, 218, 70, N207, N266, N7"
Acton Park,51.5066,-0.2603,1,490003084E,"207, 218, 70, N207, N266, N7"
Acton Park / Greenview Close,51.50701,-0.2569,1,490015431S,"70, N7"
Acton Park / Greenview Close,51.50715,-0.25714,1,490015431N,"70, N7"
Acton Street,51.52761,-0.11872,1,490012149N,"17, 46"
Acton Street,51.52835,-0.11809,1,490003087W1,"17, 46"
Acton Street,51.52858,-0.11697,1,490003087W2,"17, 46, 63, N63"
Acton Street,51.52858,-0.11564,1,490008771S,"63, N63"
Acton Town Station,51.50273,-0.28101,1,490000002A,"E3, N11"
Acton Town Station,51.5028,-0.27925,1,49000002SE,
Acton Town Station,51.50293,-0.28071,1,490000002RB7,
Acton Town Station,51.50402,-0.27986,1,490000002B,"70, E3, N11"
Acton Town Station  / Enfield Road,51.50233,-0.27886,1,490020303S,70
Acton Town Underground Station,51.503057,-0.280462,0,940GZZLUACT,"70, District, E3, N11, Piccadilly"
Acton Vale / Bromyard Avenue,51.50663,-0.25142,1,490004438W,"207, 218, 272, 306, N207, N266, SL8"
Acton Vale / Bromyard Avenue,51.50679,-0.25241,1,490004438E,"207, 218, 272, 306, N207, N266, SL8"
Ada Street,51.53574,-0.06157,1,490016378E,394
Adamsrill Road,51.43111,-0.03854,1,490003091S,356
Addington Park,51.35391,-0.03778,1,490003094E,"130, 466"
Addington Park,51.35396,-0.03892,1,490003094W,"130, 466"
Addington Road / Glebe Way,51.37052,-0.0022,1,490003099W,"119, 314, 353, 654, 664"
Addington Road / Glebe Way,51.37074,-0.00204,1,490003099N,"119, 138, 246, 314, 353, 638, 654, 664"
Addington Road / Pumping Station,51.36391,-0.01843,1,490003095W,"314, 353, 654, 664"
Addington Road / Pumping Station,51.36406,-0.01834,1,490003095E,"314, 353, 654, 664"
Addington Street,51.50126,-0.1161,1,490020287E,
Addington Village,51.35649,-0.0324,0,4900ZZCRADV,
Addington Village Interchange,51.35639,-0.03257,1,490003101E,"130, 314, 353, 359, 433, 466, 64, 654, 664"
Addington Village Interchange,51.35647,-0.03204,1,490003101A,"130, 314, 64, 664"
Addington Village Interchange,51.3565,-0.03211,1,490003101B,"314, 353, 654, 664"
Addington Village Interchange,51.35656,-0.03232,1,490003101C,"353, 359, 433"
Addington Village Interchange,51.35658,-0.03239,1,490003101D,"130, 466, 64"
Addington Village Tram Stop,51.356241,-0.032694,0,940GZZCRADV,"130, 314, 353, 359, 433, 466, 64, 654, 664, Tram"
Addiscombe,51.38021,-0.07304,0,4900ZZCRADD1,
Addiscombe Road,51.37601,-0.09108,1,490001089E5,"197, 312, 367, 410, 689"
Addiscombe Tram Stop,51.37948,-0.07307,0,4900ZZCRADD0,
Addiscombe Tram Stop,51.37981,-0.073242,0,940GZZCRADD,"119, 194, 198, 466, Tram"
Addiscombe Tram Stop,51.38005,-0.07382,1,490002002B,"289, 312, 367, 689"
Addiscombe Tram Stop,51.38044,-0.07245,1,490002002A,"289, 312, 367, 689"
Addison Road,51.58317,-0.00725,1,490003107S,"W12, W16"
Addison Road,51.58324,-0.00746,1,490003107N,"W12, W16"
Addison Way,51.58793,-0.19977,1,490003108S,"102, 13, 460"
Adelaide Avenue / Montague Avenue,51.45902,-0.02885,1,490009988E,122
Adelaide Avenue / St Margaret's Road,51.45904,-0.03118,1,490009988W1,122
Adelaide Grove,51.50637,-0.23676,1,490003110W,"207, 228, 260, 283, N207, SL8"
Adelaide Grove,51.50652,-0.23751,1,490003110E,"207, 228, 260, 283, N207, SL8"
Adelaide Road,51.4993,-0.38279,1,490014608C,"120, E5"
Adelphi Crescent,51.53245,-0.42294,1,490003111N,"195, U7"
Adelphi Crescent,51.53338,-0.42503,1,490003111S,"195, U7"
Adelphi Way,51.53204,-0.42196,1,490003113S,"195, U7"
Aden Grove,51.55333,-0.08802,1,490003114S,"141, 341"
Aden Grove,51.55372,-0.08848,1,490009055N,"141, 341"
Adley Street,51.55015,-0.03408,1,490003222E,"236, 276, 308, W15"
Admirals Way,51.5006,-0.01971,1,490002074E,D8
Admirals Way,51.50061,-0.02019,1,490002074W,D8
Adrienne Avenue,51.53265,-0.37277,1,490003116S,"120, 282, E6, E7, E9, N7"
Adrienne Avenue,51.53275,-0.37287,1,490003116E,"120, 282, E6, E7, E9, N7"
Aerodrome Road / Colindale Gardens,51.5959,-0.24528,1,490017849E,"125, 186"
Aerodrome Road / Colindale Gardens,51.59591,-0.24659,1,490017849W,"125, 186"
Agar Grove,51.54329,-0.12765,1,490003119W,274
Agar Grove / Maiden Lane,51.54271,-0.1259,1,490003074N,390
Agar Grove Estate,51.54254,-0.13417,1,490003120E,274
Agar Grove Estate,51.54263,-0.13345,1,490003120W,274
Agate Close,51.53319,-0.28568,1,490020359E,
Ainslie Wood Road,51.61219,-0.01785,1,490003124S,"158, 215, 357, 385, 397, 657, 97, N26"
Aintree Avenue,51.53201,0.04877,1,490003126W,"115, 147, 5, 58, N15"
Aintree Crescent,51.59423,0.0814,1,490003127W,169
Aintree Crescent,51.59432,0.08159,1,490003127E,169
Aintree Road,51.53995,-0.31489,1,490003128W,297
Aintree Road,51.53997,-0.31437,1,490003128E,297
Airport House,51.35628,-0.11664,1,490003130N,"119, 289, 439"
Aitken Road,51.64656,-0.22315,1,490018830Z,384
Ajax Avenue,51.5938,-0.25291,1,490003132CC,"204, 303, 632, 642, N5"
Ajax Avenue,51.59415,-0.25223,1,490005786CD,"204, 303, 632, 642, N5"
Al-Emaan Centre / Keston Mosque,51.36727,0.03746,1,490008681W,"353, 654, 664"
Al-Emaan Centre / Keston Mosque,51.36746,0.03596,1,490010989E,"353, 654, 664"
Albany Leisure Centre,51.66791,-0.04179,1,490003136N,"121, 279, N279"
Albany Leisure Centre,51.66882,-0.04128,1,490003140S,"121, 279, N279"
Albany Park Avenue,51.66577,-0.03772,1,490003145W,191
Albany Park Avenue,51.66578,-0.03646,1,490003145E,191
Albany Park Rail Station,51.435453,0.125737,0,910GALBNYPK,"269, 669, B14, Southeastern"
Albany Park Station,51.43507,0.12596,1,4900ALBNYPK1,
Albany Park Station,51.43568,0.12606,1,4900ALBNYPK0,
Albany Road,51.41969,0.06598,1,490003139H,"161, 273, 638, N136"
Albany Road,51.48618,-0.29979,1,490003137X,"235, 65, N65"
Albany Road,51.48658,-0.29989,1,490003137V,"235, 65, N65"
Albany Road,51.5727,0.14558,1,490007654W,"86, N86"
Albany Road / Camberwell Road,51.48233,-0.09312,1,490003138W,42
Albany Road / Camberwell Road,51.48252,-0.09249,1,490003138E,42
Albany Road / Green Lane,51.42123,0.06792,1,490003142B,"160, 162, 61, R7"
Albany Road / Wells Way,51.48413,-0.08518,1,490003143W,"136, 343, 42, N343"
Albany Road / Wells Way,51.48424,-0.08526,1,490003143E,"136, 343, 42, N343"
Albany Street,51.52436,-0.14446,1,490013600C,88
Albatross Close,51.51844,0.05995,1,490003747S,"101, 104, 173, 300, 474, 673"
Albatross Close,51.5195,0.05951,1,490003747N,"101, 104, 173, 300, 474, 673"
Albemarle,51.44212,-0.22347,1,490003146S,93
Albemarle,51.44274,-0.22343,1,490003146N,93
Albemarle Road,51.40725,-0.00494,1,490003147W,227
Albemarle Road,51.40734,-0.00501,1,490003147E,227
Albert Bridge / Cadogan Pier,51.48316,-0.16867,1,490003152E,170
Albert Bridge / Cadogan Pier,51.48345,-0.16614,1,490003152W,170
Albert Carr Gardens,51.42319,-0.12858,1,490003153W,249
Albert Carr Gardens,51.42336,-0.12838,1,490003153E,249
Albert Grove,51.41513,-0.21935,1,490003155W,"131, 57, N87"
Albert Grove,51.41518,-0.21949,1,490003155E,"131, 57, N87"
Albert Road,51.51122,-0.47091,1,490003159D,350
Albert Road,51.51134,-0.4714,1,490003159C,350
Albert Road,51.57029,-0.11428,1,490003160CT,"210, 310, W3, W7"
Albert Road,51.57209,0.19067,1,490015118W,"165, 193, 294, 674"
Albert Road,51.57237,0.19231,1,490015118E,"165, 193, 294, 674"
Albert Road,51.5754,0.1883,1,490003157W,"370, 496, 649, 650"
Albert Road,51.57578,0.18921,1,490003157E,"370, 496, 649, 650"
Albert Road,51.60167,-0.1316,1,490003158S,"102, 184, 299"
Albert Road,51.60239,-0.13098,1,490003158N,"102, 184, 299"
Albert Road / Nuxley Road,51.48154,0.14439,1,490012593N,401
Albert Square,51.47626,-0.11849,1,490003164N,"155, 333, N155"
Albert Square,51.47695,-0.11742,1,490003164S,"155, 333, N155"
Albert Terrace / London Zoo,51.53788,-0.15498,1,490009291B,274
Albion Road,51.41356,-0.27319,1,490003166E,57
Albion Road,51.4136,-0.27232,1,490003166W,57
Albion Road,51.45589,0.14212,1,490020014NE,
Albion Road,51.55248,-0.08609,1,490010224S3,"141, 341"
Albury Avenue,51.345674,-0.227587,1,40004406047B,S2
Albury Avenue,51.345724,-0.227915,1,40004406047A,S2
Albury Close,51.42311,-0.36735,1,490003167E,R70
Albury Close,51.42314,-0.36886,1,490003167W,R70
Albury Drive,51.6044,-0.39802,1,490003168N,H13
Albury Drive,51.60487,-0.39782,1,490003168S,H13
Albyfield,51.39905,0.05477,1,490018904W,R7
Albyns Close,51.53559,0.19676,1,490003169S,"165, 365, 372, 652"
Alcock Road,51.48185,-0.39554,1,490016382N,H28
Alcock Road,51.48244,-0.39464,1,490016382W,H28
Aldborough Road,51.541,0.16554,1,490009581S,"103, 364"
Aldborough Road North,51.57756,0.09832,1,490003171E,"296, 396, 66"
Aldborough Road South,51.56276,0.09082,1,490011999E,"86, N86"
Aldborough Road South,51.5777,0.09912,1,490019701NU,"296, 396, 66"
Aldenham Drive,51.52714,-0.451,1,490003173S,U2
Aldenham Drive,51.52746,-0.45078,1,490003173N,U2
Aldenham Street,51.53158,-0.13554,1,490003174N,"1, 253, N20, N253, N5"
Aldenham Street,51.53199,-0.13576,1,490003174S,"1, 253, N20, N253, N5"
Alder Grove,51.56622,-0.23407,1,49003271DD,"16, 182, 245"
Alder Grove,51.5665,-0.23377,1,490005476N,"16, 182, 245"
Alderbrook Road,51.4492,-0.14794,1,490003175S,"155, 249, 355, N155"
Alderbrook Road,51.44933,-0.1481,1,490003175N,"155, 249, 355, N155"
Aldercroft,51.31617,-0.12852,1,49003176N1,404
Alderman Avenue,51.52697,0.11291,1,490003177E,"EL1, EL2"
Alderman Avenue,51.52711,0.11195,1,490003177W,"EL1, EL2"
Alderney Gardens,51.54492,-0.3729,1,490003178W,"120, 140, 282, 90, N140, N7"
Alderney Street,51.48792,-0.13961,1,490003179S,"24, 360, C10"
Aldersgate Street,51.51865,-0.0972,1,490010130N,"4, 56"
Alderson Street,51.52626,-0.2111,1,490003183E,23
Aldgate Bus Station,51.51386,-0.07532,1,490003184L,"115, 242, 254, N253, N551"
Aldgate East Station,51.51465,-0.07321,1,490000004W,"115, 135, 15, 205, 242, 25, 254, N15, N205, N25, N253, N550"
Aldgate East Station,51.51492,-0.07151,1,490000004Y,
Aldgate East Station,51.51532,-0.07024,1,490000004Z,"115, 135, 15, N15, N550"
Aldgate East Station,51.5155,-0.07143,1,490000004E,"205, 25, 254, N205, N25, N253"
Aldgate East Station,51.51572,-0.07238,1,490000004N,242
Aldgate East Station,51.51577,-0.07217,1,490019414S,242
Aldgate East Underground Station,51.515037,-0.072384,0,940GZZLUADE,"205, 25, 254, District, Hammersmith & City, N205, N25, N253"
Aldgate Station,51.51356,-0.07536,1,490000003DS,343
Aldgate Station,51.51408,-0.07493,1,490000003R,"100, 115, 15, 242, 25, 254, 343, 42, 78, N15, N25, N253, N550, N551"
Aldgate Station,51.514293,-0.074735,1,490000003Y,"25, N25, N550"
Aldgate Underground Station,51.514246,-0.075689,0,940GZZLUALD,"100, 135, 15, 205, 25, 42, 78, Circle, Metropolitan, N15, N205, N25, N550, N551"
Aldingham Gardens,51.54463,0.19546,1,490003185G,"165, 365, 372"
Aldingham Gardens,51.54518,0.19592,1,490003185F,"165, 365, 372"
Aldridge Avenue,51.62631,-0.26899,1,490003188W,288
Aldrington Road,51.42502,-0.14066,1,490003189N,"201, 333, 57"
Aldrington Road,51.42506,-0.14034,1,490003189S,"201, 333, 57"
Aldrington Road / North,51.42924,-0.13997,1,490002346HS,G1
Aldrington Road / North,51.42956,-0.14007,1,490002346HN,G1
Aldwych,51.51192,-0.11912,1,490015764E,"15, 26, 341, 76, N15, N199, N21, N26, N550, N551, N89"
Aldwych,51.5127,-0.11859,1,490003191D,"15, 26, 341, 76, N15, N199, N21, N26, N550, N551, N89"
Aldwych / Australia House,51.51306,-0.11543,1,490000293Z,"15, 26, 341, 76, N15, N199, N21, N26, N550, N551, N89"
Aldwych / Bush House,51.51319,-0.11701,1,490000372Z,"23, 87, 9, N155, N44, N87, N9"
Aldwych / Drury Lane,51.51226,-0.11881,1,490019703Z,"1, 172, 188, 243, 341, 59, 68, 76, N1, N171, N68, SL6"
Aldwych / Drury Lane,51.51278,-0.11831,1,490019703Y,"1, 15, 172, 188, 23, 243, 26, 341, 59, 68, 76, 87, 9, 91, N1, N15, N155, N171, N199, N21, N26, N44, N550, N551, N68, N87, N89, N9, N91, SL6"
Aldwych / Drury Lane,51.51283,-0.11841,1,490019703E,"172, 23, 243, 59, 87, 9, N155, N44, N87, N9"
Aldwych / Kingsway,51.51314,-0.11795,1,490003191F,"1, 188, 68, 91, N1, N171, N68, N91, SL6"
Aldwych Avenue,51.58076,0.084,1,490003194S,169
Aldwych Avenue,51.58166,0.08408,1,490003194N,169
Alers Road,51.45225,0.12865,1,490000500ZZ,B13
Alers Road,51.45241,0.12808,1,490000500YY,B13
Alexander Court,51.45749,-0.18154,1,490003200N,219
Alexander Road,51.56168,-0.12466,1,490003201S,"17, 263, 43, N271, N41"
Alexander Road / Coulsdon,51.32102,-0.15579,1,490000921Y,463
Alexander Road / Coulsdon,51.32121,-0.15574,1,490000921Z,"463, 633"
Alexandra Avenue,51.37015,-0.20308,1,490003202N1,"613, 80"
Alexandra Avenue,51.37046,-0.20369,1,490003202N2,"613, 80"
Alexandra Avenue,51.48209,-0.25809,1,490004598N,"190, 533"
Alexandra Avenue,51.5113,-0.37773,1,490012241I,"207, 427, N207"
Alexandra Avenue,51.56394,-0.36596,1,490013683E,"114, H9"
Alexandra Avenue,51.56417,-0.36452,1,490013683W,"114, 398, H10, H9"
Alexandra Avenue,51.5726,-0.36996,1,490003204F,H12
Alexandra Avenue / Alexandra Palace,51.59829,-0.12665,1,490002360HW,184
Alexandra Avenue / Alexandra Palace,51.59846,-0.12613,1,490002360HE,184
Alexandra Avenue Health Centre,51.56746,-0.36885,1,490003220N,398
Alexandra Avenue Health Centre,51.56786,-0.36857,1,490003220S,398
Alexandra Gardens,51.48095,-0.25891,1,490003206S,"190, 533, E3"
Alexandra Grove,51.56738,-0.10026,1,490003208S,"253, 254, 259, 29, 310, N253, N279, N29"
Alexandra Grove,51.568,-0.09975,1,490003208E,"253, 254, 259, 29, 310, N253, N279, N29"
Alexandra Palace Garden Centre,51.59234,-0.13392,1,490003210S,W3
Alexandra Palace Garden Centre,51.59238,-0.13421,1,490003210N,W3
Alexandra Palace Ice Rink,51.59364,-0.12998,1,490003198S,W3
Alexandra Palace Ice Rink,51.59532,-0.12786,1,490003198N,W3
Alexandra Palace Palm Court,51.5931,-0.13304,1,490003199S,W3
Alexandra Palace Palm Court,51.59318,-0.13298,1,490003199E,W3
Alexandra Palace Park,51.596,-0.12426,1,490003196E,W3
Alexandra Palace Park,51.59603,-0.12485,1,490003196W,W3
Alexandra Palace Station,51.59809,-0.11964,1,490001005D,"184, W3"
Alexandra Palace Station,51.59828,-0.12002,1,490001005C,"184, W3"
Alexandra Park Road,51.59604,-0.14519,1,490003212S,"134, 43, 634"
Alexandra Park Road,51.5962,-0.14544,1,490003212N,"134, 43, 634"
Alexandra Park Road / Alexandra Palace,51.59883,-0.12245,1,490018814E,184
Alexandra Park Road / Alexandra Palace,51.59907,-0.13591,1,490018813W,184
Alexandra Place,51.38144,-0.08846,1,490003214N,410
Alexandra Place,51.38197,-0.08814,1,490003214S,410
Alexandra Road,51.41794,-0.28908,1,490003215N,371
Alexandra Road,51.41813,-0.28873,1,490003215S,371
Alexandra Road,51.53017,0.1908,1,490003216S,"165, 365, 372, 652"
Alexandra Road,51.53051,0.19068,1,490003216N,"165, 365, 372, 652"
Alexandra Road,51.58979,-0.2164,1,490003218W,"125, 143, 326, 643, 653, 683"
Alexandra Road,51.59008,-0.21503,1,490003218E,"125, 143, 326, 643, 653, 683"
Alexandra Road,51.60895,-0.14309,1,490003217W,232
Alexandra Road,51.60943,-0.14246,1,490003217E,232
Alexandra Road,51.64734,-0.03936,1,490003082E,"191, 313, 491"
Alexandra Road,51.64773,-0.03703,1,490015127W,191
Alexandra Road / Wimbledon,51.42181,-0.20697,1,490014734B,"156, 493, N87"
Alexandra Road / Wimbledon,51.42203,-0.20689,1,490014734A,"156, 493, N87"
Alford House,51.57738,-0.13729,1,490000410Z,W5
Alford Road,51.48415,0.16466,1,490013473N,99
Alford Road,51.48423,0.16486,1,490013473S,99
Alfred Road,51.627235,0.05021,1,150042019001,"167, 677"
Alfred Road,51.627253,0.049719,1,150042019002,"167, 677"
Algar Court,51.41383,-0.36359,1,490003224E,"111, 216"
Algernon Road,51.45786,-0.02044,1,490003225N,484
Alice Lane,51.53405,-0.0335,1,490012461N,"8, N8"
Alice Lane,51.53462,-0.03376,1,490012461S,"8, N8"
All Hallows Church,51.51669,-0.08478,1,490003172A,"100, 153, 21, 43"
All Hallows Road,51.59898,-0.07736,1,490009361N,318
All Hallows Road,51.59905,-0.07683,1,490003235S,318
All Saints,51.51113,-0.01291,0,4900ZZDLALL1,
All Saints,51.5112,-0.01311,0,4900ZZDLALL2,
All Saints Church,51.302107,-0.329914,1,40004408188A,465
All Saints Church,51.302408,-0.329587,1,40004408188B,465
All Saints Church,51.41087,-0.0863,1,490015128S,249
All Saints Church,51.41138,-0.08602,1,490015128E,249
All Saints Church,51.47813,0.06607,1,490003243N,386
All Saints Church,51.48339,0.1474,1,490003247S,"401, 601"
All Saints Church,51.62613,-0.06547,1,490003245W,"616, W8"
All Saints Church,51.62635,-0.06591,1,490003245E,"616, W8"
All Saints Church / Clarence Street,51.41098,-0.30605,1,490003249P3,411
All Saints DLR Station,51.511,-0.013135,0,940GZZDLALL,"108, 115, 15, 309, D6, D7, D8, DLR, N15, N551"
All Saints Mews,51.61175,-0.33485,1,490003251W,"340, 640, H12, H19"
All Saints Mews,51.61202,-0.33435,1,490003251E,"340, 640, H12, H18, H19"
All Saints Road,51.50196,-0.27003,1,490003252E1,440
All Saints School,51.307185,-0.331595,1,40004408189B,465
All Saints School,51.307487,-0.331957,1,40004408189A,465
All Souls Avenue,51.53373,-0.23432,1,490003257S1,187
All Souls Avenue,51.53385,-0.23338,1,490003257S2,187
All Souls Avenue,51.54035,-0.22512,1,490003256S,"302, 52, 6"
All Souls Avenue,51.54101,-0.22588,1,490003256N,"302, 52, 6"
Allan Way,51.5238,-0.26635,1,490003228W,
Allandale Avenue,51.59192,-0.1994,1,490005488S,"13, 460"
Allandale Avenue,51.59231,-0.19958,1,490005488N,"13, 460"
Allen Road,51.52105,0.20905,1,490003232W,"165, 287, 652"
Allen Road,51.52134,0.20977,1,490003232E,"165, 287, 652"
Allenby Road,51.51953,-0.36804,1,490005613S,105
Allenby Road,51.51957,-0.3685,1,490005613N,105
Allendale Road,51.55079,-0.32065,1,490003231E,"487, H17"
Alleyn Road,51.43002,-0.08875,1,490003233N,"3, N3"
Alliance Road,51.5264,-0.27719,1,490003236W,"487, 95"
Allington Road,51.53215,-0.21053,1,490003237E,"187, 316, 6"
Allington Road / Andover Road,51.37709,0.08272,1,490003239S,R7
Allington Road / Andover Road,51.37722,0.0827,1,490003239N,R7
Allington Road / Crofton Road,51.37306,0.08218,1,490005791S,R7
Allington Road / Crofton Road,51.37334,0.08195,1,490005791N,R7
Allison Grove,51.44212,-0.08097,1,490003240W,"P13, P4"
Alloa Road,51.48713,-0.04328,1,490003241N,225
Alloa Road,51.48779,-0.04369,1,490003241S,225
Alma Avenue,51.55465,0.22979,1,490003258S,193
Alma Avenue,51.55513,0.22974,1,490003258N,193
Almington Street,51.56845,-0.11939,1,490003261E,"210, 310"
Almington Street,51.56886,-0.11833,1,490003261W,"210, 310"
Almond Way,51.38229,0.05666,1,490003262HW,R3
Almond Way,51.38238,0.05655,1,490003262W,R3
Alnwick Road / Mottingham Lane,51.44373,0.02901,1,490018683SE,B15
Alperton Lane,51.53208,-0.31153,1,490003265W,95
Alperton Lane,51.5321,-0.30996,1,490003265E,95
Alperton Sainsbury's,51.53802,-0.30235,1,490003268E1,"224, 245, 297, 83"
Alperton Sainsbury's,51.53802,-0.3021,1,490003268E2,224
Alperton Sainsbury's / Athlon Road,51.5379,-0.30258,1,490003268W2,"224, 245, 297, 83"
Alperton Station,51.54032,-0.30139,1,490003264D,"245, 487"
Alperton Station,51.54044,-0.30122,1,490003264C,"245, 487"
Alperton Station,51.54054,-0.29893,1,490000005A,"224, 297, 483, 83, N83"
Alperton Station,51.54084,-0.29875,1,490000005B,"224, 297, 483, 83, N83"
Alperton Underground Station,51.540627,-0.29961,0,940GZZLUALP,"224, 79, Piccadilly"
Alpha Close,51.52709,-0.16415,1,490003269N,"113, 13, 274, N113"
Alpha Close,51.52756,-0.16467,1,490003269S,"113, 13, 274, N113"
Alpha Place,51.3828,-0.22324,1,490016460S,293
Alpha Place,51.38395,-0.22467,1,490016460N,293
Alpha Road,51.61981,-0.01723,1,490003270A,"215, 397, 97, N26"
Alpha Road,51.62024,-0.01701,1,490003270B,"215, 397, 97, N26"
Alsace Road,51.48706,-0.08445,1,490003274S,"136, 343, 42, N343"
Alsace Road,51.48727,-0.08489,1,490003274N,"136, 343, 42, N343"
Alscot Road,51.49362,-0.07444,1,490003275W,"1, 78, N1"
Alscot Road,51.49368,-0.07436,1,490003275E,"1, 78, N1"
Alston Road,51.6587,-0.2049,1,490005225S,
Alston Road High Barnet,51.65585,-0.20847,1,490003277E,384
Alston Road High Barnet,51.6562,-0.20749,1,490003277W,384
Altab Ali Park,51.5167,-0.06852,1,490018832E,"205, 25, 254, N205, N25, N253"
Altab Ali Park,51.51694,-0.06778,1,490006827W,"205, 25, 254, N205, N25, N253"
Altash Gardens,51.4332,0.06151,1,490003279N,314
Altmore Avenue,51.53361,0.05919,1,490003280W,"238, 300, 325, 5, N15"
Altmore Avenue,51.53366,0.05847,1,490003280X,"238, 300, 325, 5, N15"
Alton Close,51.47465,-0.32974,1,490016404N,H28
Alton Close,51.47531,-0.33077,1,490016403S,H28
Alton Road,51.36876,-0.11824,1,490003281S,"289, 439, 663"
Alton Road,51.36881,-0.11844,1,490003281N,"289, 407, 410, 439, 663"
Altyre Way,51.39178,-0.03841,1,490013532W,"194, 356, 358"
Altyre Way,51.39194,-0.03721,1,490015526E,"194, 356, 358"
Alvanley Gardens,51.55262,-0.1875,1,490003282S,"113, 13, N113"
Alwold Crescent,51.4488,0.02515,1,490003283S,"160, 660, B15"
Amberden Avenue,51.59203,-0.18927,1,490003285E,"112, 232"
Amblecote Road,51.43157,0.02649,1,490003290W,"124, 126, 624, N136"
Amblecote Road,51.43163,0.02537,1,490003290E,"124, 126, 624, N136"
Ambleside Avenue,51.42721,-0.13441,1,490003292S1,"201, 333, 57"
Ambleside Avenue,51.42746,-0.13406,1,490003292S2,"201, 333, 57"
Ambleside Avenue,51.54735,0.19874,1,490003291S,"165, 365, 372"
Ambleside Avenue,51.54791,0.1992,1,490003291N,"165, 365, 372"
Amen Corner,51.42245,-0.16047,1,490003295N,"127, 264, 270, 280, 333, 355, 44, 57, 77, N44"
Amen Corner,51.42263,-0.15897,1,490005830W,"127, 333, 57"
Amen Corner,51.42367,-0.16189,1,490003295U,"127, 264, 270, 280, 333, 355, 44, 57, 77, N44"
Amersham,51.674207,-0.60759,0,HUBAMR,"Chiltern Railways, Metropolitan"
Amersham Road,51.47334,-0.03214,1,490003298S,"136, 21, 321, 436, N136, N21"
Amersham Road,51.47353,-0.03344,1,490003298N,"136, 171, 172, 21, 321, 436, N136, N171, N21"
Amesbury Drive,51.63745,-0.01227,1,490003299S,215
Amesbury Drive,51.63851,-0.01215,1,490003299N,215
Amherst Close,51.39368,0.10461,1,490000398Y,R3
Amherst Close,51.39394,0.10305,1,490000398Z,R3
Amherst Drive,51.39407,0.10181,1,490018673Z,R3
Amherst Road,51.51878,-0.31064,1,490003303N,"297, E10"
Amhurst Park,51.57374,-0.08758,1,490003306E,"259, 279, N279"
Amhurst Park / Stamford Lodge,51.57379,-0.07449,1,490012524C,"253, 254, 310, N253"
Amhurst Road,51.55602,-0.07465,1,490003307P,"149, 243, 67, 76"
Amhurst Road / Dalston Lane,51.54961,-0.06129,1,490001128P,276
Amhurst Road / Hackney Downs Station,51.54865,-0.05841,1,490001128L,"106, 242, 253, 254, 276, 30, 38, 55, N242, N253, N38, N55"
Amity Road,51.53708,0.01331,1,490003309W,"104, 238"
Amity Road,51.53724,0.01166,1,490003309E,"104, 238"
Ampere Way,51.38214,-0.12344,0,4900ZZCRAMP0,
Ampere Way,51.38222,-0.12386,0,4900ZZCRAMP1,
Ampere Way Tram Stop,51.382238,-0.123654,0,940GZZCRAMP,"S4, Tram"
Ampere Way Tram Stop  / Valley Park,51.38238,-0.12388,1,490002004E,S4
Amwell Street / Merlin Street,51.5273,-0.10896,1,490018492S,
Amwell Street / Merlin Street,51.5274,-0.10911,1,490018492N,
Amwell Street / River Street,51.52914,-0.11027,1,490018491S,
Amwell Street / River Street,51.52921,-0.11037,1,490018491N,"19, 341, 38, N19, N38, N41"
Amyruth Road,51.45365,-0.02811,1,490000368Z,284
Anchor Close,51.52391,0.11211,1,490009651S,"EL1, EL3"
Anchor Street,51.49158,-0.06062,1,490003311N,"1, 381, N1, N381"
Anchor Street,51.49217,-0.06139,1,490003311E,"1, 381, N1, N381, P12"
Anchor and Hope Lane,51.48897,0.0304,1,490003310N,"180, 472, 486"
Anchor and Hope Lane,51.49021,0.02863,1,490015312E,"180, 472, 486"
Anderson Drive,51.432902,-0.444195,1,40004402101B,117
Anderson Drive,51.433051,-0.443902,1,40004402101A,117
Anderson Way,51.49712,0.16046,1,490005691E,"180, 401"
Anderson Way,51.49715,0.16012,1,490005691W,"180, 401"
Andover Road,51.37776,0.08148,1,490011037W2,R7
Andover Road,51.3778,0.08187,1,490011037E2,R7
Andrew Street,51.51459,-0.00853,1,490003315F,D8
Andrews Close,51.37924,-0.22602,1,490020237S,S3
Andrews Road,51.53429,-0.05963,1,490016362W,
Anerley / the Mitre,51.40627,-0.06464,1,490003318E,"157, 197, 356, 75"
Anerley / the Mitre,51.40674,-0.06343,1,490003318AV,"157, 197, 356, 75"
Anerley Hill / Crystal Palace,51.41977,-0.07759,1,490005870F,"157, 249, 358, 410, 432, N3"
Anerley Park,51.41325,-0.06877,1,490003319N,"157, 249, 358, 432, N3"
Anerley Park / Anerley Road,51.41284,-0.06788,1,490003319S,354
Anerley Park / Anerley Road,51.41326,-0.06792,1,490008537N,354
Anerley Park Road / Thicket Road,51.41619,-0.06669,1,490015448N,354
Anerley Road / Anerley Station,51.41189,-0.06683,1,490001007AB,"157, 249, 354, 358, 432, N3"
Anerley Road / Anerley Station,51.41208,-0.0669,1,490001007AA,"157, 249, 354, 358, 432, N3"
Anerley Road / Croydon Road,51.40922,-0.06007,1,490003317AH,"157, 354, 358, N3"
Anerley Road / Oak Grove Road,51.40902,-0.05863,1,490003317AJ,"197, 356, 358, 75, N3"
Anerley Road / Oak Grove Road,51.40907,-0.0588,1,490003317AK,"197, 356, 358, 75, N3"
Anerley Road / Worbeck Road,51.40806,-0.06065,1,490015130AN,"157, 197, 356, 75"
Anerley Station,51.41194,-0.06581,1,490001007E,"249, 432"
Anerley Station,51.41202,-0.06556,1,490001007AD,"249, 432"
Angel Corner,51.61436,-0.0635,1,490003322C,"34, 444"
Angel Corner,51.61473,-0.06358,1,490003322F,"34, 444"
Angel Corner,51.61601,-0.06386,1,490015189E,"149, 259, 279, 349, N279"
Angel Corner,51.61614,-0.06404,1,490010801H,"102, 144, 149, 259, 279, 34, 349, 444, 491, N279"
Angel Corner,51.61669,-0.0636,1,490015189D,"102, 144, 491"
Angel Corner / Silver Street Station,51.61458,-0.06557,1,490003324A,"102, 144, 34, 444, 491, SL1"
Angel Corner / Silver Street Station,51.61487,-0.06537,1,490003324B,"102, 144, 34, 444, 491, SL1"
Angel Hill,51.37377,-0.19472,1,490020131W,S3
Angel Islington,51.53084,-0.10421,1,490003327K,"274, 4, 56"
Angel Islington,51.53168,-0.10519,1,490003327J,"205, 214, 274, 394, 4, 43, 56, N205"
Angel Islington / City Road,51.53165,-0.10474,1,490003327H,"205, 214, 274, 394, 4, 43, 56, N205"
Angel Lane,51.54285,-0.00044,1,490003328U,"158, 241, 308"
Angel Road,0.0,0.0,1,490G00001008,
Angel Road,51.61451,-0.04837,1,4900HC188N,192
Angel Road,51.6146,-0.04813,1,490006440S,192
Angel Station,51.53191,-0.10767,1,490015108S,"205, 214, N205"
Angel Station,51.53337,-0.10564,1,490000007G,"4, 43, 56"
Angel Station,51.53374,-0.10546,1,490000007F,"19, 30, 341, 38, 476, 73, N19, N277, N38, N41, N73"
Angel Station,51.53396,-0.10558,1,490000007X,"341, 38, 476, 56, 73, N277, N38, N73"
Angel Station,51.5343,-0.10537,1,490000007Y,"19, 30, 4, 43, N19, N41"
Angel Underground Station,51.532624,-0.105898,0,940GZZLUAGL,"205, 214, 274, 394, 4, 43, 56, N205, Northern"
Angus Drive,51.5596,-0.39852,1,490014491S,114
Angus Gardens,51.60257,-0.2553,1,490003331W,"186, 204, N5"
Animal Reception Centre,51.45468,-0.45398,1,490003332W,203
Animal Reception Centre,51.45482,-0.45358,1,490003332E,203
Annandale Road,51.44115,0.09557,1,490003333S,"51, 625"
Annandale Road,51.4418,0.09599,1,490003333N,"51, 625"
Annandale Road,51.44379,0.09022,1,490002111Y,B13
Annandale Road,51.44417,0.09074,1,490002111Z,B13
Anne Boleyn's Walk,51.35727,-0.21828,1,490016303N,
Annesley Avenue,51.59362,-0.25907,1,490014985S,"142, 303, 32, N32"
Annesley Road,51.47241,0.02278,1,490003336S,"132, 178, 286, 335"
Annesley Road,51.47323,0.02201,1,490003336N,178
Anson Primary School,51.55385,-0.21832,1,490003337W,226
Anson Primary School,51.55392,-0.21793,1,490003337E,226
Anson Road,51.55337,-0.21768,1,490003338S,"260, 266, 460, N266"
Antill Road,51.5302,-0.03042,1,490015685E,339
Antill Road,51.58463,-0.06706,1,490012525R,"41, N41, W4"
Antlers Hill,51.6453,-0.00864,1,490003340S,379
Antlers Hill / Deerleap Grove,51.64321,-0.00829,1,490006024S,379
Aperfield Inn,51.30164,0.05238,1,490013361S,246
Aperfield Inn,51.30197,0.05208,1,490013361N,246
Aperfield Road,51.30734,0.04388,1,490003341E,246
Aperfield Road,51.30843,0.04336,1,490018980S,"246, R8"
Apex Corner,51.62089,-0.25332,1,490003642N1,"113, 186, 292, 384, 606, N113"
Apex Corner,51.62096,-0.25359,1,490003642N,"113, 186, N113"
Apex Corner,51.62276,-0.25475,1,490003342N,"292, 384, 606"
Apex Corner,51.62283,-0.25428,1,490003342S,"292, 384, 606"
Apex Corner / Country Way,51.43584,-0.38023,1,490015344W,290
Apex Corner / Country Way,51.43627,-0.38045,1,490015344E,290
Apex Corner / Hampton Road West,51.43701,-0.37966,1,490015342S1,"285, 490"
Apex Corner / Hampton Road West,51.43725,-0.38054,1,490015342W1,"285, 490"
Apollo Place,51.55902,0.00535,1,490003343W,"339, W13"
Apothecary Street,51.51329,-0.10409,1,490000023K,
Apple Tree Avenue,51.51744,-0.46328,1,490003348W,"U1, U3, U5"
Apple Tree Avenue,51.51761,-0.46312,1,490003348E,"U1, U3, U5"
Applegarth,51.3532,-0.02401,1,490003345W,"130, 64, 664"
Applegarth,51.35346,-0.0241,1,490003345E,"130, 64, 664"
Appleton Road,51.46052,0.04518,1,490003347E,"132, 286"
Appleton Road,51.46057,0.04414,1,490003347W,"132, 286"
Appold Street,51.52175,-0.08121,1,490016576AP,42
Aquila Estate,51.39932,0.05918,1,490018906N,R7
Arabella Drive,51.46465,-0.24977,1,490011231Z,969
Aragon Road,51.42918,-0.30363,1,490000884Z,K5
Aragon School,51.389,-0.2185,1,490013830W,413
Aragon School,51.389,-0.21786,1,490013830E,413
Arbery Road,51.52882,-0.03822,1,490003352S,"277, 339, 425, D6, N277"
Arbery Road,51.52896,-0.03852,1,490003352N,"277, 339, 425, D6, N277"
Arbour Square,51.51349,-0.04796,1,490003353E,"115, 135, 15, N15, N550"
Arbour Way,51.54715,0.20062,1,490003354S,252
Arbour Way,51.54754,0.20026,1,490003354N,252
Arbroath Road,51.46365,0.05087,1,490003355S,"122, 161"
Arbroath Road,51.46399,0.05139,1,490003355N,"122, 161"
Arbrook Lane,51.364284,-0.354889,1,40004405147B,K3
Arbrook Lane,51.36444,-0.355113,1,40004405147A,K3
Arbuthnot Lane,51.44684,0.13409,1,490003357S,269
Arbuthnot Lane,51.44795,0.13536,1,490003357N,269
Arbuthnot Road,51.47109,-0.04074,1,490003358N,"343, N343"
Arcadian Gardens,51.60574,-0.11167,1,490012152N,"121, 141, 232, 329, 629, N29"
Arcadian Gardens,51.60701,-0.11092,1,490009709S,"121, 141, 232, 329, 629, N29"
Archbishop Tenison's School,51.48303,-0.11554,1,490003359A,"185, 36, 436, N136"
Archbishop Tenison's School,51.48321,-0.11633,1,490003359B,"185, 36, 436, N136"
Archdale Place,51.40458,-0.27724,1,490006079E,"131, K5, N87"
Archway / Macdonald Road,51.56556,-0.1364,1,490009499S,
Archway Bridge,51.57046,-0.13871,1,490003362E,W5
Archway Bridge,51.57074,-0.13798,1,490003362W,W5
Archway Road,51.56653,-0.133,1,490003363N,"210, 310, 41, N41"
Archway Road / St John's Way,51.56676,-0.13299,1,490003363M,"210, 310, 41, N41"
Archway Station,51.56483,-0.13482,1,490000008W,"134, 210, 234, 310, 390, 41, N20"
Archway Station,51.56491,-0.13478,1,490000008RR,
Archway Station,51.56493,-0.13496,1,490000008U,"134, 390, N20"
Archway Station,51.5661,-0.1352,1,490000008NW,"143, 263, 4, C11, N271, W5"
Archway Station,51.56639,-0.13514,1,490000008Z,"234, 41"
Archway Station,51.56644,-0.13634,1,490000008C,"143, 210, 263, 310, 4, C11, N271, W5"
Archway Station   / Holloway Road,51.56536,-0.13413,1,490000008Y,"17, 263, 43, N271, N41"
Archway Station  / Holloway Road,51.56546,-0.13375,1,490000008R,"17, 263, 43, N271, N41"
Archway Underground Station,51.565478,-0.134819,0,940GZZLUACY,"134, 17, 234, 263, 43, N20, N271, N41, Northern"
Arden Court Gardens,51.57639,-0.1714,1,490000846Z,H3
Arden Road,51.59496,-0.20517,1,490003366S,"125, 143, 326, 643, 653, 683"
Arden Road,51.5957,-0.2046,1,490003366N,"125, 143, 326, 643, 653, 683"
Ardleigh Green School,51.5846,0.2206,1,490013557S,"256, 294, 646, 656"
Ardleigh Green School,51.58505,0.22061,1,490013557N,"256, 294, 646, 656"
Ardley Close,51.43152,-0.03752,1,490003368S,"181, 202"
Ardley Close,51.43191,-0.0377,1,490003368W,"181, 202"
Ardley Close,51.56202,-0.25269,1,490003061N,112
Ardoch Road,51.4369,-0.00166,1,490007967S,124
Ardoch Road,51.43778,-0.00184,1,490003369N,124
Arena Tram Stop,51.38937,-0.0567,1,490002005E,289
Arena Tram Stop,51.38983,-0.05559,1,490002005W,289
Argall Avenue Industrial Estate,51.57135,-0.03657,1,490016505S,W19
Argall Avenue Industrial Estate,51.57171,-0.0371,1,490016505N,W19
Argyle Gardens,51.55737,0.25771,1,490013455W,"346, 646"
Argyle Gardens,51.55755,0.25879,1,490013455E,"346, 646"
Argyle Road,51.51629,-0.32222,1,490003372W,"E1, E11"
Argyle Road,51.51653,-0.32139,1,490003372E,E1
Argyle Road,51.53361,-0.33129,1,490003370W,95
Argyle Road / Avondale Avenue,51.61337,-0.18614,1,490003373W,221
Argyle Road / Avondale Avenue,51.61356,-0.18639,1,490003373E,221
Argyle Road / Courthouse Road,51.61247,-0.18804,1,490000375Z,326
Argyle Road / Courthouse Road,51.61359,-0.18759,1,490000375Y,326
Ariel Way / White City Bus Station,51.50741,-0.2245,1,490003375WB,"148, 220, 272, 72, 95, N72"
Ariel Way / White City Bus Station,51.50844,-0.22472,1,490018981ZW,"220, 272, N72"
Ark Elvin Academy / Park Lane,51.55351,-0.2918,1,490014378M,"18, N18"
Ark Elvin Academy / Park Lane,51.55365,-0.29214,1,490005584K,"18, N18"
Arkwright Road,51.34817,-0.07786,1,490003377N,412
Arkwright Road,51.34844,-0.07815,1,490003377S,412
Arlington Close,51.44231,0.08727,1,49000HC84S,
Arlington Crescent,51.68216,-0.03344,1,490003378G,"217, 279, 317, 327, 491, N279"
Arlington Drive,51.58359,-0.43208,1,490003379S,H13
Arlington Drive,51.58429,-0.43307,1,490003379N,H13
Arlington Road,51.53665,-0.14266,1,490003380N,"274, 88"
Arlington Road,51.62753,-0.14051,1,490003381S,
Arlington Road,51.62784,-0.14079,1,490003381N,
Armada Point,51.50947,0.07476,1,490018714S,"262, 366, N551"
Armada Point,51.50987,0.07488,1,490018714N,"262, 366, N551"
Armoury Way,51.4583,-0.19668,1,490003383D,"220, 270, 485"
Armoury Way,51.45831,-0.19661,1,490003383E,"170, 220, 270, 337, 37, 485, 670"
Army Reserve Centre,51.3095,-0.1252,1,490013199E,404
Army Reserve Centre,51.54772,-0.46996,1,490008228E,U2
Army Reserve Centre,51.54772,-0.46833,1,490008228W,U2
Armytage Road,51.48273,-0.39411,1,490016383N,H28
Armytage Road,51.48321,-0.39389,1,490016383S,H28
Arnhem Avenue,51.49761,0.247348,1,1590002901,372
Arnhem Avenue,51.497652,0.247523,1,1590003001,372
Arnhem Wharf Primary School,51.49432,-0.02487,1,490006092S,"135, 277, D7, N277, N550"
Arnhem Wharf Primary School,51.49458,-0.02526,1,490006092N,"135, 277, D7, N277, N550"
Arnison Road,51.400579,-0.347966,1,40004405131B,411
Arnison Road,51.401113,-0.34753,1,40004405131A,411
Arnold Road,51.5351,0.14826,1,490003388S,"173, 174, 175, 673"
Arnold Road,51.53604,0.14777,1,490003388N,"173, 174, 175, 673"
Arnold Road,51.5475,-0.37923,1,490003387S,E10
Arnold Road,51.54796,-0.37872,1,490003387N,E10
Arnos Grove Station,51.61596,-0.13295,1,490000009W,"184, 232, 34, N91, SL1"
Arnos Grove Station,51.61599,-0.13376,1,490000009W1,"251, 298"
Arnos Grove Station,51.61618,-0.13346,1,490000009A,"184, 232, 34, 382, N91, SL1"
Arnos Grove Station,51.61621,-0.13388,1,490000009E1,"251, 298"
Arnos Grove Swimming Pool,51.61567,-0.13003,1,490017817W,"184, 232, 34, N91"
Arnsberg Way,51.45724,0.14533,1,490003975W1,
Arragon Gardens,51.41669,-0.12598,1,490003389N,"109, 250, 255, 50, G1, N109, N250"
Arragon Gardens,51.41711,-0.12615,1,490003389S,"109, 250, 255, 50, G1, N109, N250"
Arragon Road,51.44902,-0.32906,1,490013862G,290
Arragon Road,51.53116,0.04312,1,490003390E,"115, 147, 5, 58, N15"
Arrowsmith Road,51.61012,0.10909,1,490018376N,362
Arsenal Underground Station,51.558655,-0.107457,0,940GZZLUASL,"19, 236, 4, N19, Piccadilly"
Arterberry Road,51.41211,-0.22443,1,490003392W2,"131, 57, N87"
Arterberry Road,51.41243,-0.22411,1,490003392W1,"131, 57, N87"
Arterberry Road,51.41838,-0.22781,1,490003393W,200
Arterial Road / West Thurrock,51.489766,0.274491,1,1590012501,372
Arterial Road / West Thurrock,51.490162,0.275404,1,1590012601,372
Arterial Road West Thurrock,51.490162,0.275404,1,159G0012501,372
Artesian Road,51.51583,-0.19542,1,490014402A,"28, 31, 328, 7, 70, N28, N31, N7"
Artillery Close,51.5763,0.08358,1,490008372S,169
Artillery Place / Frances Street,51.48739,0.05766,1,490006981W,"291, 380, 422, 53, 54, N53"
Artillery Place / Frances Street,51.48746,0.0574,1,490006981E,"291, 380, 422, 53, 54, N53"
Artillery Place / John Wilson Street,51.48787,0.06145,1,490008574X,"291, 380, 422, 53, 54, N53"
Arundel Avenue,51.34475,-0.06854,1,490003397S,412
Arundel Avenue,51.34491,-0.0689,1,490003397N,412
Arundel Road,51.59701,0.23246,1,490003401S,"256, 294, 646, 656"
Arundel Road,51.59736,0.23233,1,490003401N,"256, 294, 646, 656"
Ascalon Street,51.47746,-0.14182,1,490011936S,P5
Ascot Gardens,51.52237,-0.37477,1,490005614N,120
Asda Edmonton Green,51.62295,-0.05818,1,4900HC189S,192
Asda Edmonton Green,51.62333,-0.05802,1,490006443Z,192
Ash Grove,51.40627,-0.05754,1,490003436BG,354
Ash Grove,51.40669,-0.05811,1,490003436BE,354
Ash Grove,51.52423,-0.3652,1,490003435W,"105, 95"
Ash Grove,51.52458,-0.36474,1,490003435E,"105, 95"
Ash Road,51.3748,-0.03084,1,490007335S,"194, 198"
Ash Road,51.38401,-0.2136,1,490003448S,"413, 93"
Ash Row,51.3861,0.05813,1,490015902SE,R3
Ash Tree Close,51.38094,-0.30138,1,490013457HU,"465, 671, 71, K1, K4, N65"
Ashbourne Grove,51.61549,-0.25549,1,490003407E,"221, 240, 303, 688"
Ashbourne Rise,51.36598,0.08123,1,490020268N,R4
Ashbourne Rise,51.36617,0.082,1,490020268S,R4
Ashbourne Road,51.41669,-0.15239,1,490003408S,"127, 201"
Ashbourne Road,51.41751,-0.1513,1,490003408N,"127, 201"
Ashbourne Road,51.52915,-0.29234,1,490015498P,"112, 483, N83"
Ashbourne Road,51.61347,0.21882,1,490003409S,"256, 294, 499, 646"
Ashburn Gardens,51.49476,-0.18525,1,490006956D,"74, N74, N97"
Ashburnham Grove,51.47498,-0.01335,1,490003411S,"129, 199, 386, N199"
Ashburnham Grove,51.47526,-0.01313,1,490003411N,"129, 199, 386, N199"
Ashburnham Road,51.43771,-0.31435,1,490003412E,371
Ashburnham Road,51.43783,-0.31429,1,490003412W,371
Ashburton Avenue,51.54871,0.0923,1,490003417N,145
Ashburton Park,51.38479,-0.06408,1,490003419D,"130, 289, 312"
Ashburton Park,51.38487,-0.06379,1,490003419C,"130, 289, 312"
Ashburton Road,51.37449,-0.07421,1,490003420W2,"119, 194, 198, 466"
Ashburton Road,51.37505,-0.07583,1,490003420E,"119, 194, 198, 466"
Ashburton Road,51.37927,-0.07505,1,490015131W1,"289, 312, 367, 689"
Ashchurch Terrace,51.50188,-0.24183,1,490003424S,"218, 306, N266"
Ashcroft Avenue,51.44869,0.09974,1,490002113Z,B13
Ashcroft Court,51.62992,-0.16928,1,490003425E,"125, 251, 34, 628, 688"
Ashdown Road,51.331834,-0.251533,1,40004406052B,166
Ashdown Road,51.332138,-0.25201,1,40004406052A,166
Ashen Vale,51.34748,-0.05207,1,490003426W,"359, 64"
Ashfield Lane,51.41501,0.08176,1,490003427W,"160, 269, 625, 638"
Ashfield Lane,51.41514,0.08184,1,490003427E,"160, 269, 625, 638"
Ashford (Surrey) Rail Station,51.436507,-0.468071,0,910GASFDMSX,"117, 216, South Western Railway"
Ashford Hospital,51.444087,-0.474911,1,40004402014A,"116, 203"
Ashford Hospital,51.444627,-0.474951,1,40004402075A,"116, 203"
Ashford Hospital Entrance,51.4441,-0.47589,1,400G4402014A,"116, 203"
Ashford Railway Station,51.435667,-0.46843,1,400G4402112A,117
Ashford Road,51.422993,-0.447667,1,40004402098A,290
Ashford Road,51.424209,-0.449841,1,40004402098B,290
Ashford Road,51.425896,-0.475661,1,40004402111B,290
Ashford Road,51.426083,-0.476158,1,40004402111A,290
Ashford Road Roundabout,51.425896,-0.475661,1,400G4402111B,290
Ashford Station,51.435614,-0.46918,1,40004402112B,117
Ashford Station,51.435667,-0.46843,1,40004402112A,117
Ashford War Memorial,51.432416,-0.460526,1,40004402106B,"117, 216, 290"
Ashford War Memorial,51.432505,-0.460436,1,40004402106A,"117, 216, 290"
Ashgrove Road,51.4222,-0.0023,1,490003438S2,"208, 320, N199"
Ashgrove Road,51.42228,-0.00262,1,490003438S1,"208, 320, N199"
Ashley Drive,51.4479,-0.36646,1,490018717N,481
Ashley Drive,51.44798,-0.36632,1,490018717S,481
Ashley Drive,51.645295,-0.261528,1,210021002040,"107, 292"
Ashley Drive,51.645762,-0.261467,1,210021004780,"107, 292"
Ashley Lane,51.59317,-0.21912,1,490003441S,240
Ashley Lane,51.59385,-0.21839,1,490003441N,240
Ashley Road,51.332303,-0.266746,1,40004406119A,"166, 293"
Ashley Road,51.65683,-0.04623,1,490004312W,307
Ashley Road,51.65696,-0.0464,1,490004312E,307
Ashley Road (N17),51.59047,-0.06122,1,490020103N,
Ashmere Avenue,51.40685,-0.00908,1,490003442N,227
Ashmore Road,51.52481,-0.20289,1,490003444W,"18, 228, 28, N18"
Ashmour Gardens,51.5896,0.17749,1,490003445W,103
Ashmour Gardens,51.58978,0.17731,1,490003445E,103
Ashridge Way,51.39816,-0.20729,1,490003447W,"163, 293"
Ashridge Way,51.3984,-0.20673,1,490003447E,"163, 293"
Ashridge Way,51.40273,-0.20912,1,490003446W,"164, 413"
Ashridge Way,51.4029,-0.20978,1,490003446E,"164, 413"
Ashton Playing Fields,51.60532,0.04968,1,490003450N,"275, W12"
Ashton Playing Fields,51.60535,0.05054,1,490003450M,"275, W12"
Ashton Road,51.59661,0.21979,1,490003451Y,"346, 496, 656"
Ashton Road,51.59734,0.21871,1,490003451Z,346
Ashton Road,51.59778,0.21756,1,490003451E,"496, 656"
Ashurst Drive,51.57528,0.07399,1,490003452E,"296, 396, 66"
Ashville Road,51.56315,0.00312,1,490003455S,"339, W15"
Askew Road,51.49916,-0.24107,1,490015455W,"237, 94"
Askew Road,51.49956,-0.24009,1,490015455E,"237, 94"
Askew Road,51.50671,-0.24413,1,490003456W,"207, N207"
Askew Road Library / Gayford Road,51.50324,-0.24338,1,490007145N,"218, 306, N266"
Askew Road Library / Gayford Road,51.50364,-0.24338,1,490007145S,"218, 306, N266"
Askwith Road,51.52512,0.17156,1,490016809E,"287, 365"
Asmuns Hill,51.58501,-0.19446,1,490003458Z,H2
Aspen Lane,51.53047,-0.38003,1,490011995N,"696, E6"
Aspen Way,51.50598,-0.0074,1,490003459Q,"D6, D7, N550"
Aspen Way,51.50677,-0.00792,1,490003459R,"D6, D7, N550"
Athelney Street,51.43397,-0.02249,1,490002381ZW,
Athelstan Park,51.40404,-0.2943,1,490003467S,"K1, K4"
Athelstan Park,51.40461,-0.29445,1,490003467N,"K1, K4"
Athenaeum Road,51.63124,-0.17537,1,490015488J,"234, 263, 326, 34, 626, 634, N20"
Athenaeum Road / The Firs,51.63215,-0.17208,1,490002284YY,
Athenaeum Road / The Firs,51.63261,-0.16858,1,490013358E,
Athenaeum Road / The Firs,51.63267,-0.16841,1,490002284ZZ,
Atherton Leisure Centre,51.54396,0.01377,1,490003468W,"25, 425, 86, N25, N86"
Atherton Leisure Centre,51.54446,0.01538,1,490003468E,"25, 425, 86, N25, N86"
Athlone House,51.57205,-0.15709,1,490003469W,"210, 310, 603"
Athlone House,51.57215,-0.15712,1,490003469E,"210, 310, 603"
Athole Gardens,51.6431,-0.07407,1,490023111N,377
Atkins Road,51.44692,-0.13239,1,490003472N1,50
Atkins Road / New Park Road,51.44716,-0.12954,1,490010243W,"137, 417, 57, 59, N137"
Atkins Road / New Park Road,51.44716,-0.12905,1,490010243E,"137, 417, 57, 59, N137"
Atkinson Close / Copse Hill,51.41826,-0.23954,1,490003470W,200
Atlas Road,51.55796,-0.26974,1,490007677S,"206, 92"
Atrium Hotel,51.46608,-0.42032,1,490002202Z,
Atwater Close,51.44473,-0.11678,1,490003473W,201
Atwater Close,51.44478,-0.11659,1,490003473E,201
Auckland Rise,51.41127,-0.08122,1,490003474N,410
Audleigh Place,51.607209,0.067086,1,150003475W,275
Audleigh Place,51.607386,0.066776,1,150003475E,275
Audley Road,51.5205,-0.29139,1,490003477S,"112, 483, N83"
Audley Road,51.58222,-0.23389,1,490003476W,"83, N5, N83"
Audley Road,51.58234,-0.2332,1,490003476E1,"183, 653, 683, 83, N5, N83"
Audley Road,51.58264,-0.23436,1,490003476E2,"183, 653, 683"
Audley Road,51.58312,-0.23368,1,490003476S,"183, 653, 683"
Audric Close,51.41443,-0.288,1,490003479N,371
Augusta Street,51.51365,-0.0188,1,490003480W,309
Augusta Street,51.51377,-0.01982,1,490005607S,309
Augustine Road,51.39947,0.12154,1,490000788Y,R4
Augustus Road,51.44459,-0.2114,1,490000209W,493
Augustus Road,51.44467,-0.21165,1,490000209E,493
Auriol Drive,51.54515,-0.34524,1,490013569N,"395, 92"
Auriol Drive,51.54635,-0.34451,1,490013569S,"395, 92"
Auriol Drive,51.55214,-0.45104,1,490003484W,U2
Auriol Drive,51.55225,-0.45155,1,490003484E,U2
Austin Court,51.64463,-0.07523,1,490023113W,377
Austin Court,51.64491,-0.076,1,490023113N,377
Austin Road,51.38944,0.10308,1,490003486W,"273, 661"
Austin Road,51.3895,0.10344,1,490003486E,"273, 661"
Austin Road,51.39051,0.10439,1,490003486S,"273, 661, R3"
Austin Road,51.39072,0.1043,1,490003486N,R3
Austins Lane,51.56523,-0.44322,1,490013091A,"278, U1, U10"
Austral Close,51.43295,0.09624,1,490015179Z,
Austral Close,51.43297,0.09745,1,490015179E1,233
Austyn Gardens,51.38397,-0.2842,1,490003488N,"665, K2"
Austyn Gardens,51.38446,-0.28294,1,490003488S,"665, K2"
Autumn Street,51.53465,-0.02195,1,490014659N,339
Autumn Street,51.53515,-0.0218,1,490003489S,339
Avalon Close,51.36962,0.12088,1,490003490W,R9
Avanti House Primary School,51.62688,-0.34035,1,490013153N,258
Avanti House Primary School,51.62733,-0.33958,1,490013153S,258
Aveling Park Road,51.59378,-0.01748,1,490014158S,"215, 34, 357, 97, N26"
Aveling Park Road,51.59404,-0.01688,1,490014158N,"215, 34, 357, 97, N26"
Avelon Road,51.60303,0.17529,1,490003491W,"175, 375"
Avelon Road,51.60362,0.1763,1,490003491E,"103, 175, 375, 651"
Avenue Park Road,51.44025,-0.10264,1,490003492E,"201, P13"
Avenue Park Road,51.44074,-0.10464,1,490003492W,"201, P13"
Avenue Road,51.327649,-0.270022,1,40004406011A,"406, 467"
Avenue Road,51.327996,-0.270411,1,40004406011B,"166, 293, 406, 467"
Avenue Road,51.41044,-0.23772,1,490003496E,57
Avenue Road,51.41059,-0.23803,1,490003496W,57
Avenue Road,51.41094,-0.0559,1,490003494E,"197, 356, 358, 75, N3"
Avenue Road,51.41156,-0.05477,1,490003494W,"197, 356, 358, 75, N3"
Avenue Road,51.42078,-0.33235,1,490018858W,481
Avenue Road,51.42083,-0.33202,1,490018858E,481
Avenue Road,51.53467,-0.16435,1,490003497E,274
Avenue Road,51.53517,-0.16296,1,490003497W,274
Avenue Road,51.63617,-0.13737,1,490005040S,"125, 298, 299, 382, 628, 688, 699"
Avenue Road,51.63618,-0.13771,1,490005040N,"125, 298, 299, 382, 628, 688, 699"
Avenue Road / Crook Log,51.45902,0.13075,1,490007256S,"422, B11, B12, B15"
Avenue Road / Erith,51.47558,0.17049,1,490002240Z,B12
Avenue Road / Erith,51.47607,0.17246,1,490002240Y,B12
Avenue Road / Grosvenor Court,51.63905,-0.13401,1,490003501W,299
Avenue Road / Grosvenor Court,51.6394,-0.13398,1,490003501E,299
Avenue Road / Nursery Road,51.6373,-0.13632,1,490018752W,299
Avenue Road / Station Road,51.34427,-0.20238,1,490018771S,S4
Avenue Road / Swiss Cottage Library,51.54188,-0.17223,1,490003495H,"31, C11, N28, N31"
Avery Hill / Riefield Road,51.45217,0.07881,1,490003504N,"621, 624, 658, B15"
Avery Hill Road / Halfway Street,51.44465,0.08154,1,490003507S,"162, B13"
Avery Hill Road / Halfway Street,51.44489,0.08145,1,490003507N,"162, B13"
Avignon Road / Drakefell Road,51.46579,-0.04389,1,490006190BK,"343, 484, N343"
Avon Road,51.5282,-0.36737,1,490003518S,"105, 95"
Avon Road,51.52902,-0.36751,1,490003518N,"105, 95"
Avondale Crescent,51.57695,0.04587,1,490006805E2,366
Avondale Drive,51.51181,-0.41227,1,490003512S,"140, 696, 90, E6, N140"
Avondale Drive,51.51198,-0.41272,1,490003512N,"140, 696, 90, E6, N140"
Avondale Road,51.42774,-0.19455,1,490003515W,"156, 493, N87"
Avondale Road,51.42775,-0.19544,1,490003515E,"156, 493, N87"
Avondale Road,51.46698,0.12016,1,490007969Z,B15
Avondale Road,51.467,0.12082,1,490007969Y,B15
Avondale Road,51.46963,-0.2598,1,490006144S,"209, 378"
Avondale Road,51.46978,-0.2614,1,490003516W,"419, 533, 969, N22"
Avondale Road,51.46992,-0.25953,1,490003516E,"209, 378, 419, 533, 969, N22"
Avondale Road,51.60077,-0.18055,1,490019118E,382
Awlfield Avenue,51.59784,-0.08313,1,490003521W1,"123, 243"
Awlfield Avenue,51.59801,-0.08192,1,490003521E,"123, 243"
Awlfield Avenue,51.60102,-0.08275,1,490008071W2,318
Awlfield Avenue,51.60128,-0.08301,1,490008071E,318
Ayles Road,51.53174,-0.40644,1,490003528Z,E9
Ayles Road,51.53205,-0.40555,1,490003528S2,E9
Ayles Road / Owen Close,51.53307,-0.40526,1,490018757N,
Aylesbury Street,51.52374,-0.10279,1,490003525N,153
Aylesbury Street,51.56214,-0.25727,1,490003524N,"182, 245, 297, 302, N98"
Aylmer Road,51.58434,-0.1673,1,490003529A,"102, H3"
Ayloffs Walk,51.57791,0.21904,1,490003532S,"256, 646, 656"
Ayloffs Walk,51.57876,0.21898,1,490003532N,"256, 646, 656"
Back Lane,51.489432,0.262936,1,159G0701101,372
Bacon Lane,51.59075,-0.27191,1,490003538W,303
Bacon Lane,51.59128,-0.27068,1,490003538E,303
Bacon Lane,51.60414,-0.28112,1,490003537W,"288, 688"
Bacon Lane,51.60452,-0.28066,1,490003537E,"288, 628, 688"
Bader Close,51.32146,-0.09518,1,490020219N,439
Badric Court,51.46984,-0.17417,1,490003543LL,"44, N44"
Badric Court,51.47001,-0.17477,1,490003543E,"44, N44"
Baffin Way,51.50689,-0.00697,1,490000804Y,"D3, N550"
Baffin Way,51.5078,-0.0049,1,490000804Z,"D3, N550"
Bagleys Lane,51.47266,-0.18409,1,490005070W,"306, C3"
Baird Road,51.64907,-0.05797,1,490015329W,"121, 191, 217, 307, 313, 317"
Baird Road,51.64923,-0.05779,1,490015329E,"121, 191, 217, 307, 313, 317"
Baker Street,51.66312,-0.07795,1,490003547W,"191, W8"
Baker Street,51.66322,-0.0778,1,490003547E2,191
Baker Street,51.66343,-0.07834,1,490003547E1,"191, W8"
Baker Street Station,51.52222,-0.15626,1,490000011E,"18, 205, 27, 30, 453, N18, N205, N27"
Baker Street Station,51.52235,-0.15683,1,490000011E1,
Baker Street Station,51.52242,-0.16009,1,490006135S,
Baker Street Station,51.52242,-0.15628,1,490000011D,"18, 205, 27, 30, 453, 74, N18, N205, N27, N74"
Baker Street Station,51.52253,-0.15761,1,490000011S2,
Baker Street Station,51.52257,-0.15771,1,490000011B,"113, 139, N113"
Baker Street Station,51.52285,-0.15794,1,490000011ZZ,"113, 13, 139, 189, 274, N113"
Baker Street Station,51.52342,-0.15803,1,490000011S1,
Baker Street Station,51.52351,-0.15813,1,490000011A,"13, 189, 274, 74, N74"
Baker Street Station,51.52489,-0.15982,1,490000011ZY,
Bakers Avenue,51.5762,-0.0148,1,490015099A,"20, 230, 257, 357, 55, 69, 97, N26, N38, W15, W19"
Balaam Park Health Centre,51.52632,0.02382,1,490006106N,"241, 325, 678"
Balaam Street,51.52216,0.02196,1,490003551E,"115, 276, 300, 330, 5, N15"
Balaam Street,51.52256,0.02338,1,490003551W,"115, 276, 330, 5, N15"
Balaam Street,51.52956,0.02421,1,490011045S,"262, 473"
Balaam Street,51.52963,0.02368,1,490011045N,"241, 262, 325, 473, 678"
Balchen Road,51.46882,0.03583,1,490003553W,386
Balchen Road,51.46901,0.03702,1,490003553E,386
Baldock Way,51.66874,-0.282453,1,210021002820,292
Baldock Way,51.669004,-0.282081,1,210021003990,292
Baldwyns Park,51.4349,0.16644,1,490005969W,B12
Baldwyns Park / Dartford Road,51.43432,0.16583,1,490005969N,B12
Balfern Grove,51.48937,-0.25057,1,490003556S,190
Balfern Grove,51.48958,-0.25094,1,490003556N,190
Balfour Road / Athenaeum Court,51.5529,-0.092,1,490016299S,393
Balfour Road / Crowfield House,51.55577,-0.09237,1,490016298S,393
Balfour Road / Crowfield House,51.55583,-0.09254,1,490016298N,393
Balfour Road / Lexfield House,51.55289,-0.09219,1,490016299N,393
Balfour Street,51.49132,-0.08956,1,490003557N,"136, 343, N343"
Balfour Street,51.49138,-0.08982,1,490003557S,"136, 343, N343"
Balgonie Road,51.62858,0.00288,1,490005183N,"179, 212, 397, 444"
Balgonie Road,51.6288,0.00308,1,490005183E,"179, 212, 397, 444"
Balgores Lane,51.58669,0.20077,1,490003558W,"174, 498, N86"
Balham,51.443259,-0.152707,0,HUBBAL,"Northern, Southern"
Balham Health Centre,51.44084,-0.14856,1,490003560S,315
Balham Health Centre,51.44091,-0.14875,1,490003560N,315
Balham New Road,51.44636,-0.14958,1,490003561E,"155, 249, 255, 355, N155"
Balham New Road,51.44727,-0.14912,1,490003561F,"155, 249, 255, 355, N155"
Balham Station,51.44287,-0.15336,1,490000012B,"155, 249, 355, N155"
Balham Station,51.44304,-0.15155,1,490000012A,315
Balham Station,51.44391,-0.15207,1,490000012C,"155, 249, 255, 355, N155"
Balham Station  / Balham Station Road,51.44302,-0.15091,1,490000012J,255
Ballards Road,51.52965,0.15365,1,490003565W,"145, 174, 175, 287, 687"
Ballards Road,51.53814,0.16722,1,490009126W,103
Ballards Road,51.5384,0.16725,1,490003566E,103
Ballards Road,51.53947,0.16528,1,490003566N1,"103, 364"
Ballards Road,51.54003,0.16532,1,490003566N2,"103, 364"
Ballards Road / Princess Parade,51.52982,0.15383,1,490003565E2,"145, 174, 175, 287, 687"
Ballards Way,51.35582,-0.07257,1,490003568E,"433, 64"
Ballards Way,51.35598,-0.07298,1,490003568N,"433, 64"
Balls Pond Road,51.5463,-0.08387,1,490015133N,141
Balls Pond Road,51.54698,-0.08378,1,490015133S,141
Balls Pond Road,51.54721,-0.08663,1,490003569S2,"341, 476, 73, N73"
Balls Pond Road / Burder Road,51.54613,-0.07788,1,490004583F,"30, 38, 56, N277, N38"
Balmoral Court,51.56109,-0.28857,1,490003571N,297
Balmoral Drive,51.52573,-0.41974,1,490003572D,"195, 696, 697, 90, U7"
Balmoral Drive,51.52711,-0.41844,1,490003572N,"195, 696, 697, 90, U7"
Baltic Street West,51.52234,-0.09746,1,490003573S,"153, 4, 56"
Bampton Road,51.59538,0.22289,1,490003574S,498
Bampton Road,51.59636,0.22507,1,490003574E,498
Bancroft Road / Ocean Estate,51.52223,-0.04475,1,490010513E,"205, 25, N205, N25"
Bancroft's School,51.61874,0.0259,1,490003575W,"179, 397, 657, 679"
Bancroft's School,51.61881,0.0261,1,490003575E,"179, 397, 657, 679"
Bandon Hill Cemetery,51.36645,-0.1321,1,490003576N,S4
Bandon Hill Cemetery,51.36721,-0.13191,1,490003769S,S4
Banister House,51.548,-0.04533,1,490006082A,"236, 276, 394, 425, 488, W15"
Banister Road,51.53047,-0.2163,1,490003583S,"28, 316, 52"
Banister Road,51.53057,-0.21652,1,490003583N,"28, 316, 52"
Bank,51.513395,-0.089095,0,HUBBAN,"133, 141, 149, 21, 25, 26, 344, 35, 388, 43, 47, 8, Central, DLR, N133, N21, N242, N25, N26, N550, N551, N8, Northern, Waterloo & City"
Bank Station  / Cornhill,51.51327,-0.08775,1,490000013E,"25, 26, 8, N242, N25, N26, N550, N551, N8"
Bank Station  / Cornhill,51.51338,-0.0876,1,490000013D,"25, 26, 8, N242, N25, N26, N550, N551, N8"
Bank Station  / King William Street,51.51226,-0.08805,1,490000013F,"133, 141, 21, 43, N21"
Bank Station  / Poultry,51.51374,-0.09146,1,490007596K,"25, 26, 8, N242, N25, N26, N550, N551, N8"
Bank Station  / Princes Street,51.51396,-0.08926,1,490011218B,"141, 21, 43"
Bank Station  / Princes Street,51.51431,-0.08965,1,490011218A,"141, 21, 43"
Bank Station  / Threadneedle Street,51.51381,-0.08787,1,490000013C,
Bankhurst Road,51.44858,-0.02969,1,490003579Z,284
Bankside Pier,51.508388,-0.096384,0,930GSWK,"344, RB1, RB2, RB6, Thames River Services"
Bankside Pier,51.50839,-0.09634,0,4900SWK0,
Bankside Road,51.5472,0.08231,1,490003581W,366
Bankside Road,51.54728,0.08178,1,490003581E,366
Bannister Playing Fields,51.6093,-0.35724,1,490003582C,182
Bannockburn Road,51.48719,0.0932,1,490003584O,"177, 180, 422, 469, 96, 99, N1"
Bannockburn School,51.4867,0.10157,1,490005261S,469
Bannockburn School,51.48696,0.1012,1,490005261N,469
Banqueting House,51.50381,-0.12613,1,490008376S1,
Banstead / Marks & Spencer,51.32214,-0.203393,1,40004409047B,"166, S1"
Banstead / Marks & Spencer,51.32216,-0.20411,1,40004409047A,"166, S1"
Banstead / the Woolpack,51.32411,-0.196383,1,40004409045B,"166, S1"
Banstead / the Woolpack,51.324433,-0.195768,1,40004409045A,"166, S1"
Banstead Crossroads,51.32786,-0.209284,1,40004409049A,166
Banstead Crossroads,51.327868,-0.210992,1,40004409049B,166
Banstead Downs,51.335587,-0.194828,1,40004409034B,S1
Banstead Downs,51.336291,-0.194943,1,40004409034A,S1
Banstead Rail Station,51.329349,-0.213159,0,910GBANSTED,"166, Southern"
Banstead Road South / Downs Road,51.3415,-0.18782,1,490003589S,"S3, S4"
Banstead Station,51.328395,-0.21545,1,40004409050B,166
Banstead Station,51.328577,-0.214452,1,40004409050A,166
Barbauld Road,51.55836,-0.08247,1,490003591N,"476, 73, N73"
Barbauld Road,51.55893,-0.08243,1,490004808S,"476, 73, N73"
Barbican Station,51.5203,-0.0977,1,490000014A,"153, 4, 56"
Barbican Station,51.5209,-0.09738,1,490000014B,"153, 4, 56"
Barden Street,51.47671,0.08951,1,490003593N,291
Barfield Road,51.39932,0.05669,1,490018905E,R7
Barfield Road / Blackbrook Lane,51.39929,0.05698,1,490018905W,R7
Bargehouse Road,51.50119,0.07012,1,490003595E,474
Bargehouse Road,51.50119,0.07067,1,490003595W,474
Bargery Road,51.44054,-0.02071,1,490003596N,"136, 171, 199, 208, 320, 336, 47, 54, 660, N136, N199"
Barham Avenue,51.651846,-0.285737,1,210021002710,107
Barham Avenue,51.65214,-0.28493,1,210021004230,107
Barham Park,51.55154,-0.31132,1,490013363S,H17
Baring Road,51.43268,0.02194,1,490018573W,273
Baring Road,51.44586,0.01318,1,490003599W,"160, 202, 660"
Baring Road,51.44599,0.01311,1,490003599E,"160, 202, 660"
Baring Road,51.65261,-0.16698,1,490006899Z,384
Baring Road,51.65298,-0.16704,1,490006899S,384
Baring Road,51.65304,-0.16734,1,490006899N,384
Baring Road / Coopers Lane,51.43524,0.01998,1,490015292N,"261, 273, 284"
Baring Road / Coopers Lane,51.43575,0.01967,1,490015292S,"261, 273, 284"
Baring Street,51.53626,-0.08929,1,490003601W,"141, 76"
Baring Street,51.53654,-0.09044,1,490003601N1,"21, N271"
Baring Street,51.53662,-0.0888,1,490003601N2,"141, 394, 76"
Baring Street,51.53663,-0.09029,1,490003601S,"141, 21, 394, 76, N271"
Barkantine Clinic / Hutchings Street,51.49835,-0.02599,1,490003602N,"135, 277, D7, N277, N550"
Barkantine Clinic / Hutchings Street,51.49888,-0.02591,1,490003602S,"135, 277, D7, N277, N550"
Barking,51.539413,0.080988,0,HUBBKG,"District, Hammersmith & City, Suffragette, c2c"
Barking & Dagenham College,51.55964,0.17547,1,490011797S,174
Barking & Dagenham College,51.56031,0.17544,1,490011797N,174
Barking Abbey,51.53711,0.07624,1,490003603A,"287, 368, 62, 687"
Barking Bus Garage,51.54651,0.09563,1,490003605W,"145, 5, EL2, EL3, N15"
Barking Bus Garage,51.54661,0.09552,1,490003605E1,"145, 5, EL2, EL3, N15"
Barking Bus Garage / Faircross,51.54493,0.09452,1,490003605N,62
Barking Community Hospital,51.54023,0.0998,1,490003608S,62
Barking Industrial Park,51.53339,0.10606,1,490013224W,"287, 368, 62, 687"
Barking Industrial Park,51.53359,0.106,1,490013224E,"287, 368, 62, 687"
Barking Riverside Station,51.51903,0.11758,1,490002272YX,"EL1, EL3"
Barking Riverside Station,51.51945,0.11803,1,490002272YY,"EL1, EL3"
Barking Road,51.52275,0.02258,1,490003549S,"241, 325, 678"
Barking Road,51.52276,0.02241,1,490011039N,"241, 325, 678"
Barking Road,51.52631,0.02882,1,490011040N,"262, 473"
Barking Road,51.52687,0.02848,1,490011040S,"262, 473"
Barking Road,51.52974,0.03741,1,490003151R,"104, 376"
Barking Road / Manor Road,51.51675,0.00768,1,490016356S,323
Barking Station,51.53923,0.08137,1,490000015H,"287, 368, 62, 687, EL1, EL2, EL3, SL2"
Barking Station,51.53942,0.08123,1,490000015K,"368, 5, 62, 687, EL2, EL3, N15, SL2"
Barking Station,51.53986,0.08214,1,490000015X,"169, 238, 366, 5, N15"
Barking Station,51.53997,0.08206,1,490000015L,"169, 238, 287, 366, EL1"
Barking Station,51.54007,0.0822,1,490000015RB,
Barking Station,51.54007,0.08239,1,490000015G,
Barking Station,51.5402,0.08233,1,490000015N1,
Barking Tesco,51.53709,0.07099,1,490003615S,"238, 366, 5, N15"
Barking Town Centre,51.53794,0.0778,1,490003616M,"169, 238, 287, 366, 368, 5, 62, 687, N15, SL2"
Barking Town Centre,51.53805,0.07836,1,490003616C,"238, 287, 366, 368, 5, 62, 687, N15, SL2"
Barking Town Centre,51.53816,0.07825,1,490003616D,"169, 287, 366, 687, SL2"
Barking Town Centre,51.53834,0.07856,1,490003616E,"238, 368, 5, 62, N15"
Barkingside High Street,51.59025,0.08123,1,490003612H,"128, 462"
Barkingside High Street,51.59039,0.08116,1,490003612P,"128, 462"
Barkingside Magistrates Court,51.58799,0.08127,1,490003613R,"169, 247"
Barkingside Police Station,51.58886,0.08115,1,490007012N,"128, 150, 167, 169, 275, 667, 677, N8"
Barkingside Station,51.58725,0.08511,1,490000016S,"169, 247"
Barkingside Station,51.5874,0.0852,1,490000016U,169
Barkingside Station,51.58777,0.08423,1,490003623B,247
Barkingside Tesco,51.58673,0.08141,1,490003614V,275
Barlby Gardens,51.52364,-0.21785,1,490003618P,"316, 70"
Barlby Gardens,51.52369,-0.21732,1,490003618Q,"316, 70"
Barlby Road,51.52343,-0.21364,1,490003619M,"228, 23, 295, 452, 52, 70"
Barlby Road,51.52354,-0.21345,1,490003619N,"228, 23, 295, 452, 52, 70"
Barley Lane,51.58238,0.11571,1,490003620C,"296, 396, 66"
Barley Lane,51.58262,0.11561,1,490003620D,"296, 396, 66"
Barley Lane / Goodmayes Station,51.56648,0.10894,1,490003621C,"86, N86"
Barn Croft Primary School,51.57642,-0.03581,1,490016504S,W19
Barn Croft Primary School,51.57656,-0.03514,1,490016504N,W19
Barnabas Road,51.54519,-0.04042,1,490003622W,"26, 30, N26"
Barnabas Road,51.5453,-0.04062,1,49003622ZZ,"26, 30, N26"
Barnby Street,51.53756,0.00595,1,490014466S,"104, 238, 241, 262, 276, 473, 69"
Barnehurst Avenue,51.47118,0.16134,1,490004477E,"89, N89"
Barnehurst Rail Station,51.464959,0.159646,0,910GBRNHRST,"229, 602, 669, 89, 99, N89, Southeastern, Thameslink"
Barnehurst Road / Randolph Close,51.46191,0.15992,1,490015141N,99
Barnehurst Road / Randolph Close,51.4623,0.15985,1,490015141S,99
Barnehurst Station,51.46478,0.15926,1,4900BRNHRST1,
Barnehurst Station,51.46556,0.15708,1,490001013B,"229, 602, 669, 89, N89"
Barnehurst Station,51.46581,0.15725,1,490001013A,"229, 602, 669, 89, N89"
Barnes / Red Lion,51.47504,-0.24036,1,490003628BA,"209, 33, 378, 419, 485, 533, 969, N22"
Barnes / Red Lion,51.47565,-0.23932,1,490003628WR,"209, 33, 419, 485"
Barnes Bridge Station,51.47256,-0.25288,1,490001015BK,"209, 378, 419, 533, 969, N22"
Barnes Bridge Station,51.47263,-0.25258,1,490001015BJ,"209, 378, 419, 533, 969, N22"
Barnes High Street,51.47351,-0.25057,1,490003630ZZ,"209, 378, 533, 969, N22"
Barnes High Street,51.47356,-0.24874,1,490003630BH,"209, 378, 533, 969, N22"
Barnes Pond,51.47335,-0.24673,1,490003632BC,
Barnes Pond,51.47339,-0.24682,1,490003632BD,"209, 378, 485, 533, 969, N22"
Barnes Pond,51.47388,-0.24677,1,490003632BF,"209, 378, 485, 969, N22"
Barnes Rail Station,51.467086,-0.242164,0,910GBARNES,"33, 337, 493, 969, N33, South Western Railway"
Barnes Station,51.46665,-0.24202,1,490001014B,"265, 33, 419, 969, N33, N72"
Barnes Station,51.46685,-0.24216,1,4900BARNES2,
Barnes Station,51.46734,-0.24161,1,4900BARNES1,
Barnes Station,51.4674,-0.24119,1,490001014A,"265, 33, 419, 969, N33, N72"
Barnet Church,51.65263,-0.19904,1,490003634L,"234, 326, 383, 384, 389, 626"
Barnet Church,51.65274,-0.19931,1,490003634K,"107, 184, 234, 263, 307, 326, 383, 384, 389, 606, 626, 634, N20"
Barnet Church / Wood Street,51.65297,-0.20243,1,490015142E,"107, 184, 263, 307, 606, 634, N20"
Barnet Church / Wood Street,51.65306,-0.20161,1,490015142F,"107, 184, 263, 307, 606, 634, N20"
Barnet Copthall Leisure Centre,51.60826,-0.22765,1,490005596W,221
Barnet Copthall Leisure Centre,51.60845,-0.22692,1,490005596E,221
Barnet Everyman Cinema,51.64609,-0.18665,1,490003640N,"234, 263, 34, 634, N20"
Barnet Everyman Cinema,51.64641,-0.18687,1,490012613S,"107, 234, 263, 307, 326, 34, 384, 634, N20"
Barnet Everyman Cinema,51.6468,-0.18631,1,490015143W,"107, 307, 326, 384"
Barnet Everyman Cinema,51.64714,-0.18644,1,490015143E,"107, 307, 326, 384"
Barnet Grove,51.52616,-0.0667,1,490003638W,"388, 8, N8"
Barnet Grove,51.52619,-0.06734,1,490003638E,"388, 8, N8"
Barnet High Street,51.65353,-0.20149,1,490003639J,"234, 326, 383, 384, 389, 626"
Barnet High Street,51.65466,-0.20159,1,490003639D,"234, 326, 383, 384, 389, 626"
Barnet High Street / Barnet Church,51.65262,-0.19881,1,490003634H,"107, 184, 234, 263, 307, 326, 34, 383, 384, 389, 606, 626, 634, N20"
Barnet High Street / Barnet Church,51.65281,-0.19918,1,490003634G,"234, 263, 34, 626, 634, N20"
Barnet Hospital,51.65174,-0.21455,1,490003637S,307
Barnet Hospital,51.65185,-0.21467,1,490003637W,"107, 263, 307, 384, 606, 634, N20"
Barnet Hospital,51.65188,-0.21425,1,490003637E,"307, 384"
Barnet Hospital,51.65196,-0.21403,1,490003637N,"263, N20"
Barnet Hospital / Queens Road,51.65282,-0.2139,1,490003636B3,"107, 606, 634"
Barnet Hospital / Queens Road,51.65292,-0.21321,1,490003636B4,"107, 606, 634"
Barnet Hospital A&E Department,51.65034,-0.21732,1,490003655Z,384
Barnet Hospital A&E Department,51.65079,-0.2164,1,490003637Z,384
Barnet Playing Fields,51.64383,-0.18939,1,490020372N,389
Barnet Way / Apex Corner,51.62101,-0.2531,1,490003642S,"113, 186, N113"
Barnfield Avenue,51.42842,-0.3011,1,490003643E,371
Barnfield Avenue,51.42876,-0.30221,1,490003643W,371
Barnfield Wood Road Park Langley,51.38702,-0.01042,1,490020198N,352
Barnfield Wood Road Park Langley,51.38711,-0.01021,1,490020198S,352
Barnham Drive,51.50142,0.09568,1,490016808W,380
Barnham Drive,51.50146,0.0959,1,490016808E,380
Barnhill Community High School,51.52977,-0.39792,1,490003647S,"140, 696, 697, N140"
Barnhill Community High School,51.52984,-0.39825,1,490003647N,"140, 696, 697, N140"
Barnmead Road,51.54452,0.14358,1,490003648N,364
Barnsbury Road,51.53533,-0.11109,1,490005581S,"153, 274"
Baron Street / Chapel Market,51.53228,-0.10929,1,490003650T,"30, 476, 73, N277, N73"
Barra Hall Road,51.51456,-0.43147,1,490003651W,350
Barra Hall Road,51.51471,-0.43206,1,490003651E,350
Barrack Road,51.4627,-0.38862,1,490008395W,"116, 117, 235, 635"
Barrack Road,51.46394,-0.38855,1,490018733N,"116, 117, 235, 423, 635"
Barrack Road,51.46411,-0.38846,1,490018733S,423
Barratt Avenue,51.59663,-0.11489,1,490009734E,"184, W3"
Barratt Avenue,51.59673,-0.11637,1,490009734W,"184, W3"
Barretts Green Road,51.53251,-0.26335,1,490003652S,"187, 224, 226, 228, 260, 487"
Barretts Green Road,51.53263,-0.26359,1,490003652E,"187, 224, 226, 228, 260, 487"
Barrhill Road,51.44078,-0.12557,1,490003598S,"109, 133, 159, 201, 250, 319, 333, 417, 45, 57, N109, N133, N137, N250"
Barrowgate Road,51.4882,-0.26672,1,490003654S,"272, E3"
Barrowgate Road,51.48882,-0.26656,1,490003654N,"272, E3"
Barry Road / Peckham Rye,51.45857,-0.06639,1,490010885S2,"12, 197"
Barset Road,51.46598,-0.05738,1,490003656E,"78, P12"
Barset Road,51.46625,-0.05657,1,490003656S,"78, P12"
Bartholomew Street,51.49527,-0.08654,1,490003658BE,"21, N21"
Bartholomew Street,51.49587,-0.08781,1,490004071BD,"21, N21"
Bartholomew Way,51.397107,0.175712,1,2400101819,233
Bartholomew Way,51.397709,0.17472,1,2400A020320A,233
Bartle Avenue,51.5325,0.0513,1,490003659Q,"115, 147, 5, 58, N15"
Bartle Avenue,51.53251,0.05111,1,490003659P,"115, 147, 5, 58, N15"
Barton Avenue,51.56319,0.16223,1,490003660W,"103, 128, 175, 5, N15"
Barton Avenue,51.5632,0.16161,1,490003660E,"103, 128, 175, 499, 5, N15"
Barton Road,51.41643,0.12842,1,490003662N,492
Barton Road,51.4169,0.12936,1,490003662S,492
Barwell Business Park,51.35327,-0.31226,1,490003663W,"465, 71, N65"
Barwell Business Park,51.35358,-0.31236,1,490003663X,"465, 71, N65"
Barwick Drive,51.52384,-0.44872,1,490010010N,"A10, U4, U7"
Bascule Bridge,51.50377,0.07072,1,490003664N,474
Bascule Bridge,51.50476,0.07124,1,490003664S,474
Bashley Road,51.52786,-0.2595,1,490003665N,440
Basil Gardens,51.37845,-0.05174,1,490003326W,367
Basil Gardens,51.37858,-0.05182,1,490003326E,367
Basildene Road,51.46808,-0.39534,1,490003666E1,423
Basildene Road,51.4682,-0.39593,1,490003666W1,423
Basildon Avenue,51.59612,0.07216,1,490003667W,169
Basildon Road,51.48455,0.10604,1,490003668W,99
Basildon Road,51.48493,0.10551,1,490003668E,99
Basildon Road / Bostall Hill,51.48487,0.10673,1,490004163S,"177, 180, N1"
Basildon Road / Bostall Hill,51.48503,0.10657,1,490004163N,"177, 180, N1"
Basing Way,51.59454,-0.18631,1,490003670E,"143, 643, 653, N20"
Basing Way,51.59458,-0.18673,1,490003670W,"143, 643, 653, N20"
Basire Street,51.53794,-0.09173,1,490003671S,"21, N271"
Bassant Road,51.47859,0.09348,1,490009795E,"51, 625, 658"
Bassant Road,51.47919,0.09302,1,490003672N,"51, 625, 658"
Bastable Avenue / River Road,51.5274,0.09485,1,490005911W,"EL1, EL2"
Baston Road,51.36775,0.02762,1,490003675W,"353, 654, 664"
Baston Road,51.36783,0.02724,1,490003675E,"353, 654, 664"
Baston Road / Croydon Road,51.36802,0.02489,1,490005859S,"146, 353"
Baston Road / Croydon Road,51.36843,0.02462,1,490005859N,"146, 353"
Baston School,51.37453,0.0199,1,490003676S,"146, 353"
Baston School,51.37527,0.01913,1,490003676N,"146, 353"
Batchworth Heath,51.620465,-0.44533,1,210021803520,331
Batchworth Heath,51.620485,-0.444824,1,210021803320,331
Bath Road,51.46817,-0.37838,1,490003679N2,H28
Bath Road,51.46967,-0.37908,1,490003679N1,H28
Bath Road / Newport Road,51.481,-0.4631,1,490008014W,"423, 81, U3"
Bath Street,51.52662,-0.09117,1,490018497N,
Bathgate Road,51.43828,-0.21259,1,490020224S,"39, 493, 639"
Bathgate Road,51.43861,-0.21245,1,490020224Z,"39, 493, 639"
Battersea Arts Centre,51.46465,-0.16141,1,490010524E,"156, 345, 77, 87, N87"
Battersea Arts Centre,51.46481,-0.15949,1,490010524S,"156, 345, 77, 87, N87"
Battersea Bridge,51.47977,-0.17147,1,490003683N,"170, 19, 319, 345, 49, N19, N31"
Battersea Bridge / Hester Road,51.47966,-0.17107,1,490003683S,170
Battersea Dogs & Cats Home,51.4782,-0.14504,1,490003686E,"156, 211, 344, 436"
Battersea Dogs & Cats Home,51.47839,-0.14458,1,490003686S,"156, 344"
Battersea High Street,51.46955,-0.17155,1,490003687N1,"319, 344, 345, 49, 639, 670, N19, N31"
Battersea High Street,51.47004,-0.17275,1,490003687E,"319, 344, 345, 44, 49, 639, 670, N19, N31, N44"
Battersea High Street,51.47043,-0.17059,1,490003687W2,"319, 344, 345, 44, 49, 639, 670, N19, N31, N44"
Battersea High Street,51.47439,-0.17628,1,490003688W,170
Battersea High Street,51.47443,-0.17649,1,490003688E,170
Battersea Medical Centre,51.47547,-0.15069,1,490013341M,"344, 44, N44"
Battersea Medical Centre,51.47618,-0.14898,1,490011361G,"344, 44, N44"
Battersea Park / Chelsea Gate,51.48261,-0.14936,1,490005064S,"137, 211, 44, 452, N137, N44"
Battersea Park / Chelsea Gate,51.48322,-0.14968,1,490005064N,"137, 211, 44, 452, N137, N44"
Battersea Park Library,51.47433,-0.15661,1,490003690E,"344, 44, N44"
Battersea Park Library,51.47442,-0.15525,1,490003690W,"344, 44, N44"
Battersea Park Rail Station,51.47696,-0.147533,0,910GBATRSPK,"344, 44, N44, Southern"
Battersea Park Station,51.47678,-0.14714,1,490001016B,"156, 344"
Battersea Park Station,51.47691,-0.14828,1,490001016C,"137, 44, 452, N137, N44"
Battersea Park Station,51.47695,-0.14846,1,490001016D,"137, 44, 452, N137, N44"
Battersea Park Station,51.47711,-0.14717,1,490001016A,"156, 344, 436"
Battersea Park Station,51.47716,-0.1484,1,4900BATRSPK1,
Battersea Park Station,51.47787,-0.14633,1,490003686W,436
Battersea Power Station,51.47973,-0.14116,1,490012196S,"156, 211, 344, 436"
Battersea Power Station,51.47975,-0.14238,1,4900ZZBPSUST,
Battersea Power Station,51.47987,-0.14131,1,490012196E,"156, 211, 344, 436"
Battersea Power Station,51.48061,-0.1408,1,490002371YY,211
Battersea Power Station,51.48066,-0.14063,1,490002371ZZ,211
Battersea Power Station Underground Station,51.479932,-0.142142,0,940GZZBPSUST,"Northern, P5"
Battle of Britain War Memorial,51.35151,-0.11478,1,490003693S,"289, 439"
Battle of Britain War Memorial,51.35173,-0.11587,1,490003693N,"289, 439"
Baudwin Road,51.4364,0.00073,1,490003694S,124
Baudwin Road,51.43662,0.00054,1,490003694N,124
Bavaria Road,51.56546,-0.12061,1,490003695N,"91, N91"
Bawdsey Avenue,51.58117,0.10641,1,490003696W,"296, 396, 66"
Bawdsey Avenue,51.58192,0.10806,1,490003696E,"296, 396, 66"
Bawtry Road,51.62459,-0.156,1,490003697E,"251, 34"
Bawtry Road,51.62468,-0.15652,1,490003697W,"251, 34"
Bayham Street,51.53826,-0.14043,1,490003698W,"31, N28, N31"
Baylis Road / Lambeth North Station,51.49972,-0.11171,1,490000132P,59
Baylis Road / Lower Marsh,51.50124,-0.11057,1,490003699N,"59, 76"
Baynes Close,51.66003,-0.06037,1,490007588W,191
Baynes Close,51.66014,-0.06022,1,490007588E,191
Bayswater Station,51.5126,-0.18768,1,490000018P,70
Bayswater Underground Station,51.512284,-0.187938,0,940GZZLUBWT,"70, Circle, District"
Baytree Close,51.40958,0.03377,1,490003700W,314
Baytree Close,51.40975,0.03266,1,490003700E,314
Bazely Street,51.51116,-0.01209,1,490003701A,"108, 115, 15, D6, N15, N551"
Bazely Street,51.51131,-0.01168,1,490003701C,"108, 115, N15, N551"
Bazile Road,51.64158,-0.10279,1,490003702E,"125, 616, 699"
Bazile Road,51.64175,-0.1037,1,490003702W,"125, 616, 699"
Beacon Road,51.4552,-0.45633,1,490003704NW,203
Beacon Road,51.45549,-0.45653,1,490003704SE,203
Beaconsfield Road,51.38815,-0.0937,1,490003706E,"157, 75"
Beaconsfield Road,51.38827,-0.09256,1,490003706W,"157, 75"
Beaconsfield Road,51.42972,0.04556,1,490003709W,"124, 126, 273, 624, N136"
Beaconsfield Road,51.42972,0.04605,1,490003709E,"124, 126, 273, 624, N136"
Beaconsfield Road,51.47863,0.0154,1,490015144W,386
Beaconsfield Road,51.47885,0.01456,1,490015144E,386
Beaconsfield Road,51.54906,-0.24372,1,490003711W,"260, 266, 297, N266"
Beaconsfield Road,51.54923,-0.2431,1,490003711E,"260, 266, 297, N266"
Beaconsfield Road,51.62272,-0.15187,1,490003707N,"251, 34"
Beaconsfield Road,51.62285,-0.15172,1,490003707E,"251, 34"
Beaconsfield Road,51.67145,-0.03843,1,490003710W,121
Beaconsfield Road,51.67162,-0.03835,1,490003710E,121
Beaconsfield Road / Legacy Youth Zone,51.38998,-0.09498,1,490016652S,"468, 50, N68, SL6"
Beaconsfield Road / New Southgate Stn,51.61498,-0.14679,1,490003712W,"221, 382, SL1"
Beaconsfield Road / New Southgate Stn,51.61532,-0.1457,1,490003712E,"221, 382, SL1"
Beacontree Avenue,51.59325,0.00477,1,490003714E,123
Beadon Road,51.39493,0.01346,1,490012861N,"246, 352"
Beadon Road,51.39507,0.01365,1,490012861S,"246, 352"
Beak Street / Hamleys Toy Store,51.51123,-0.13887,1,490004810RK,"12, 139, N113, N15, N18, N3"
Beak Street / Hamleys Toy Store,51.51127,-0.13914,1,490005537RA,"12, 139, N113, N15, N3"
Beal Road,51.5619,0.06819,1,490013966J,"128, 150, 167, 296, 364, 396, 462, 667, 677"
Beal Road,51.56325,0.06746,1,490013311U,"123, 128, 145, 150, 167, 179, 296, 364, 366, 396, 462, 667, 677, 679"
Beale Close,51.61183,-0.09814,1,490013724Z,W4
Beale Close,51.61185,-0.09784,1,490013724E,
Beaminster Gardens,51.59114,0.07154,1,490003715W,128
Beaminster Gardens,51.59124,0.07219,1,490003715E,128
Beamish House,51.48961,-0.0564,1,490003716E,"1, 381, N1, N381"
Bear Road Flyover,51.43274,-0.39215,1,490003718N,"111, H25"
Bear Road Flyover,51.43317,-0.39267,1,490003718W,290
Bear Road Flyover,51.43349,-0.39228,1,490003718E,290
Bear Road Flyover,51.43418,-0.3921,1,490003718S,"111, 290, H25"
Bears Wood,51.34264,-0.0378,1,490003719N,353
Bears Wood,51.34273,-0.03734,1,490003719S,353
Beatrice Court,51.625749,0.047788,1,150042020002,W14
Beattyville Gardens,51.58317,0.07611,1,490007695N,"128, 150, 167, 667, 677, N8"
Beaufort Drive,51.58849,-0.19482,1,490003723W,102
Beaufort Drive,51.58852,-0.19456,1,490003723E,102
Beaufort Gardens,51.47947,-0.38458,1,490016387W,H28
Beaufort Gardens,51.47965,-0.38503,1,490016387E,H28
Beaufort Gardens,51.57989,-0.22527,1,490003724S,"113, 143, 186, 324, 326, 643, N113"
Beaufort Park,51.59669,-0.24407,1,490008055W,"303, 632, 642"
Beaufort Road,51.43221,-0.31543,1,490003725N,K5
Beaufort Street,51.48235,-0.17222,1,490003682W,170
Beaufort Street,51.48245,-0.17244,1,490003682E,170
Beaufort Street,51.48433,-0.17644,1,490015145E,"11, 170, 22, N11, N22"
Beaufort Street,51.48473,-0.1751,1,490015145W,"11, 22, N11, N22"
Beaufort Street / King's Road,51.48387,-0.17508,1,490015145S,"19, 319, 345, 49, N19, N31"
Beaufort Street / King's Road,51.48407,-0.17549,1,490015145N,"19, 319, 345, 49, N19, N31"
Beaumaris Drive,51.60172,0.0446,1,490003728N2,W12
Beaumaris Drive,51.60282,0.04572,1,490003728N1,W12
Beaumont Rise,51.571,-0.12451,1,490008365W,"210, 310"
Beaumont Rise,51.57111,-0.12485,1,490008365E,"210, 310"
Beaumont Road,51.45104,-0.21765,1,490003729E,"170, 670"
Beaumont Road,51.52506,0.02996,1,490003730S,"147, 262, 276, 473"
Beavers Community School,51.46895,-0.39864,1,490011871N,423
Beavers Community School,51.46906,-0.39862,1,490011871W,423
Beavers Crescent,51.46729,-0.39159,1,490018735E,423
Beavers Crescent,51.46746,-0.39336,1,490018735W,423
Beaverwood Road,51.41639,0.08934,1,490003735W,"160, 269, 625, 638"
Beaverwood Road,51.41661,0.0897,1,490003735E,"160, 269, 625, 638"
Beaverwood Road,51.41871,0.08954,1,490003736N,638
Beck Court,51.40296,-0.05151,1,490003737N,354
Beckenham Crematorium,51.40224,-0.05362,1,490003738BJ,"354, 356"
Beckenham Crematorium,51.40226,-0.05391,1,490003738BK,"354, 356"
Beckenham Cricket Club,51.41285,-0.02095,1,490006972W,354
Beckenham Cricket Club,51.41297,-0.02153,1,490006972E,354
Beckenham Grove,51.40481,-0.00516,1,490003739W,367
Beckenham Grove,51.40497,-0.00538,1,490003739E,367
Beckenham High Street / Kelsey Square,51.40673,-0.0281,1,490003740K,"227, 354, 367, 54, N3"
Beckenham High Street / War Memorial,51.40668,-0.03054,1,490003744P,"227, 352, 354, 54, N3"
Beckenham High Street / War Memorial,51.40673,-0.03132,1,490003744R,"227, 352, 354, 54, N3"
Beckenham Hill Road / Primrose Close,51.42538,-0.01292,1,490G00011185,54
Beckenham Hill Road / Primrose Close,51.42565,-0.01278,1,490011185N,54
Beckenham Hill Station,51.4236,-0.01491,1,490001017B,54
Beckenham Hill Station,51.42388,-0.01487,1,490001017A,54
Beckenham Hospital,51.40444,-0.03461,1,490003742N,"194, 358, 54"
Beckenham Hospital,51.40476,-0.03406,1,490003742S,"194, 358, 54"
Beckenham Junction,51.41068,-0.02686,1,490001018ZZ,
Beckenham Junction,51.41081,-0.02703,1,490001018E,
Beckenham Junction,51.411175,-0.026016,0,HUBBEK,"162, 354, 54, Southeastern, Southern, Thameslink, Tram"
Beckenham Junction Rail Station,51.411035,-0.025813,0,910GBCKNHMJ,"162, 354, 54, Southeastern, Southern, Thameslink"
Beckenham Junction Station,51.40933,-0.0253,1,490015222C,"162, 354, 54"
Beckenham Junction Station,51.40963,-0.02508,1,490015222D,"162, 354, 54"
Beckenham Junction Station,51.41107,-0.02514,1,4900BCKNHMJ2,
Beckenham Junction Stn  / Rectory Rd,51.41075,-0.0258,1,4900BCKNHMJ1,
Beckenham Junction Stn  / Rectory Rd,51.41079,-0.02552,1,490001018A,162
Beckenham Junction Stn  / Rectory Rd,51.41151,-0.02558,1,4900BCKNHMJ3,
Beckenham Lane,51.40768,0.00586,1,490006752S,354
Beckenham Library,51.40852,-0.03814,1,490006516E,"194, 227, 354, 358, N3"
Beckenham Road / West Wickham Station,51.38023,-0.0153,1,490001334A,194
Beckenham Road Tram Stop,51.40935,-0.04344,1,490002010A,"194, 227, 358, N3"
Beckenham Road Tram Stop,51.40943,-0.04407,1,490002010B,"194, 227, 358, N3"
Becket Avenue,51.5266,0.06091,1,490014041W,300
Becket Avenue,51.52677,0.06151,1,490014041N,300
Beckford Road,51.39005,-0.07768,1,490002160YY,
Beckford Road,51.39045,-0.07739,1,490002160ZZ,
Beckmead College,51.39629,-0.08161,1,490011241N,410
Beckton Bus Station,51.51388,0.05894,1,490006317B,366
Beckton Bus Station,51.51407,0.0597,1,490006317A,"101, 104, 173, 366, 376, 673, 678"
Beckton Bus Station,51.51431,0.05935,1,490006317C,"104, 262, 300, 376, 678, N551"
Beckton Bus Station,51.51443,0.05999,1,490006317D,"101, 104, 173, 262, 300, 366, 376, 474, 673, 678, N551"
Beckton DLR Station,51.514362,0.061453,0,940GZZDLBEC,"101, 104, 173, 262, 300, 366, 376, 474, 673, 678, DLR, N551, SL2"
Beckton District Park,51.51655,0.04326,1,490003748W,"262, 300, N551"
Beckton District Park,51.51658,0.04434,1,490003748E,"262, 300, N551"
Beckton Dlr Depot,51.51065,0.07842,1,490018760W,"262, 366, N551"
Beckton Dlr Depot,51.51082,0.07921,1,490018760E,"262, 366, N551"
Beckton Park Station,51.50904,0.0562,1,490002012X,"376, 678"
Beckton Park Station,51.50922,0.05409,1,490002012Z,"376, 678"
Beckton Station,51.51369,0.06093,1,490002011H,"262, 366, 376, 474, 678, N551"
Beckton Station,51.51432,0.06064,0,4900ZZDLBEC1,
Beckton Triangle Retail Park,51.5214,0.07052,1,490005335W,"173, 325, 366, 673"
Beckton Triangle Retail Park,51.52158,0.07046,1,490005335E,"325, 366"
Beckton Triangle Retail Park,51.52344,0.06903,1,490003752W2,"173, 673"
Beckwith Road,51.45332,-0.09142,1,490003757W,37
Beckwith Road,51.45342,-0.09175,1,490003757E,37
Becmead Avenue,51.43105,-0.13532,1,490015146S2,315
Becmead Avenue,51.43212,-0.13587,1,490015146N,315
Becmead Avenue,51.43235,-0.12885,1,490003758N,"109, 159, 250, 50, N109, N250"
Becmead Avenue,51.43256,-0.12917,1,490003758O,"133, 201, 255, 333, 45, 57, N133, P13"
Becmead Avenue,51.43266,-0.12867,1,490003758NA,"109, 133, 159, 201, 250, 255, 319, 333, 45, 50, 57, N109, N133, N250, P13"
Becmead Avenue,51.43282,-0.12898,1,490003758OA,"109, 159, 250, 319, 50, N109, N250"
Becontree Avenue,51.55187,0.11337,1,490003760E,"145, 5, EL2, N15"
Becontree Avenue,51.55803,0.12679,1,490003901N,"364, 62"
Becontree Avenue,51.55822,0.13025,1,490003759S,62
Becontree Avenue,51.55957,0.12982,1,490003759N,62
Becontree Heath Leisure Centre,51.56096,0.15174,1,490003764W,"175, 5, N15"
Becontree Heath Leisure Centre,51.56132,0.14961,1,490003763G,"128, 150, 175, 5, EL2, N15"
Becontree Station,51.53984,0.1277,1,490000019B,"145, 62"
Becontree Station,51.54013,0.12738,1,490000019A,"145, 62"
Becontree Underground Station,51.540331,0.127016,0,940GZZLUBEC,"145, District"
Beddington / Asda,51.37594,-0.13094,1,490003768W,"463, S4"
Beddington Cross,51.38128,-0.13463,1,490003770S,"633, S4"
Beddington Cross,51.38319,-0.13777,1,490009875N,"633, S4"
Beddington Farm Road,51.385,-0.12808,1,490002075S,S4
Beddington Farm Road,51.38514,-0.12836,1,490013518N,S4
Beddington Farm Road Sorting Office,51.38157,-0.1292,1,490003703S,463
Beddington Farm Road Sorting Office,51.38209,-0.1303,1,490003703N,463
Beddington Gardens,51.35911,-0.15121,1,490003775W,"151, 410"
Beddington Lane,51.39386,-0.14516,1,490003776W,264
Beddington Lane,51.39449,-0.14699,1,490003776E,264
Beddington Lane / Sewage Treatment Works,51.38028,-0.13296,1,490003767N,"633, S4"
Beddington Lane / Sewage Treatment Works,51.38049,-0.13335,1,490003767S,"633, S4"
Beddington Lane Tram Stop,51.38801,-0.14107,1,490002013N,"463, 633"
Beddington Lane Tram Stop,51.38821,-0.14104,1,490002013S,"463, 633"
Beddington Park,51.37278,-0.15075,1,490003781S,151
Beddington Park,51.37376,-0.15098,1,490003781N,151
Beddington Road,51.40693,0.0965,1,490003782S,"B14, R1, R11"
Beddington Road,51.40734,0.09632,1,490003782E,"B14, R1, R11"
Beddington Village,51.37312,-0.1319,1,490003777N,"463, 633, S4"
Beddington Village,51.37399,-0.13169,1,490003777M,"463, 633, S4"
Bedfont Close,51.45352,-0.43951,1,490003784S,"203, H25, H26"
Bedfont Close,51.45356,-0.43968,1,490003784N,"203, H25, H26"
Bedfont Green,51.45119,-0.43931,1,490003786E,"116, H25"
Bedfont Green,51.45135,-0.43819,1,490003786W,"116, H25"
Bedfont Lakes,51.44584,-0.44062,1,490003801N,H26
Bedfont Lakes,51.44622,-0.44084,1,490003801S,H26
Bedfont Lakes Commercial Estate,51.4479,-0.44439,1,490003787W,H26
Bedfont Lakes Commercial Estate,51.44803,-0.44427,1,490003787S,H26
Bedfont Lane,51.45425,-0.426,1,490003788W,116
Bedfont Library,51.45216,-0.43504,1,490003790E,"116, H25"
Bedfont Library,51.45219,-0.43452,1,490003790W,"116, H25"
Bedfont Road,51.457741,-0.471779,1,40004402008B,203
Bedfont Road,51.457952,-0.471384,1,40004402008A,203
Bedford Hall,51.38107,-0.09933,1,490003793S,"157, 289, 450, SL6"
Bedford Hall,51.38137,-0.09939,1,490003793N,"157, 289, 450, 468, 50, 75, N68, SL6"
Bedford Place,51.5208,-0.12488,1,490011815K,14
Bedford Road,51.43156,0.08808,1,490000449Z,233
Bedford Road,51.43162,0.08784,1,490000449Y,233
Bedford Road,51.45965,-0.12974,1,490003796D,"137, 35, 37, 417, 690, N137"
Bedford Road,51.45972,-0.13044,1,490003796E,"137, 35, 37, 417, 690, N137"
Bedford Road,51.49665,-0.25588,1,490003797N,"E3, N11"
Bedford Road,51.49686,-0.25574,1,490003797S,"E3, N11"
Bedford Road,51.58518,-0.08057,1,490009023W,"41, N41"
Bedford Road,51.58524,-0.07929,1,490009023E,"41, N41"
Bedford Road,51.59163,0.02256,1,490003798S,W12
Bedford Road,51.59288,0.02236,1,490003798N,W12
Bedford Street,51.50967,-0.12319,1,490003112J,"139, 15, 176, 23, 26, 87, 9, 91, N15, N155, N199, N21, N26, N343, N44, N550, N551, N87, N89, N9, N91"
Bedford Way,51.52279,-0.12721,1,490014799,
Bedonwell Road / Dryhill Road,51.47901,0.14241,1,490006206E,422
Bedonwell Road / Long Lane,51.46845,0.14282,1,490009326S,"401, 601, B12"
Bedonwell Road / Long Lane,51.46876,0.14291,1,490003802N,"401, 601, B12"
Bedonwell Road / Streamway,51.47881,0.14321,1,490006206N,"401, 422"
Beech Avenue,51.48102,-0.31623,1,490003804E,"235, 237, 267, E8, N9"
Beech Close,51.3773,-0.16823,1,490003807W,80
Beech Close,51.37759,-0.1678,1,490003807E,80
Beech Grove,51.60533,0.09939,1,490003813W,"150, 247, N8"
Beech Grove,51.60544,0.09951,1,490003813E,"150, 247, N8"
Beech Hill,51.66737,-0.15764,1,490003814C,"298, 699"
Beech Hill,51.66768,-0.15814,1,490019558E,399
Beech Hill,51.66796,-0.1579,1,490003814B,"298, 699"
Beech Street,51.52059,-0.09443,1,490003818E,153
Beech Walk,51.61429,-0.25348,1,490003819W,"221, 240, 303, 688"
Beech Way,51.33434,-0.0514,1,490015666N,
Beechcroft Gardens,51.5611,-0.29182,1,490000886Z,"204, 483, 79"
Beechcroft Road,51.36251,0.07883,1,490003808W1,R4
Beechcroft Road,51.36254,0.07912,1,490003808E1,R4
Beechcroft Road,51.3627,0.07861,1,490003808E,R4
Beechen Grove,51.65677,-0.394847,1,210G3090,"142, 258"
Beechen Grove,51.656925,-0.395059,1,210021902040,"142, 258"
Beechenlea Lane,51.390239,0.188553,1,2400A021130A,233
Beechfield Gardens,51.56892,0.16901,1,490000377Z,499
Beechfield Road,51.44027,-0.03068,1,490003812E,"181, 202, 75"
Beechfield Road,51.44101,-0.02895,1,490003812W,"181, 202, 75"
Beechfield Road / Erith,51.47661,0.17371,1,490002244Z,B12
Beechvale Close,51.61694,-0.15962,1,490002294ZZ,
Beechway,51.44806,0.12278,1,490003820W,"132, N21"
Beechway,51.4481,0.12437,1,490003820E,"132, N21"
Beechwood Avenue,51.32247,-0.15664,1,490000922Z,"463, 633"
Beechwood Avenue,51.425215,-0.419486,1,40004402062A,"235, 635"
Beechwood Avenue,51.425943,-0.419447,1,40004402062B,"235, 635"
Beechwood Avenue,51.51445,-0.43535,1,490004176W,350
Beechwood Avenue,51.51457,-0.43569,1,490004176E,350
Beechwood Avenue,51.5308,-0.36456,1,490006370W,"105, 282, 95, E6, E7, E9, N7"
Beechwood Avenue,51.59021,-0.19307,1,490003822E,"112, 232"
Beechwood Avenue (BR6),51.35751,0.08386,1,490016817E,R8
Beechwood Avenue East,51.32409,-0.15176,1,490000947Z,463
Beechwood Drive,51.58983,-0.1936,1,490003825W,"112, 232"
Beechwood Gardens,51.290171,-0.076021,1,40004410110B,"407, 434"
Beechwood Gardens,51.290961,-0.075415,1,40004410110A,"407, 434"
Beechwood Grove,51.51202,-0.2548,1,490012067W,"70, N7"
Beechwood Park,51.5866,0.02127,1,490003827S,W12
Beechwood Park,51.58723,0.02128,1,490003827N,W12
Beechwood Road,51.34571,-0.09222,1,490011900S,403
Beechwood Road,51.34612,-0.09273,1,490011900N,403
Beecroft Road,51.45611,-0.03635,1,490001076A,"122, 171, 172, N171"
Beehive Lane,51.57283,0.06511,1,490003828N,"123, 128, 150, 167, 179, 296, 396, 462, 667, 677, 679"
Beehive Lane,51.57299,0.06395,1,490003830N,462
Beehive Lane,51.57307,0.06414,1,490003830S,462
Beehive Lane,51.57638,0.05906,1,490003829W,"66, N8"
Beehive Lane,51.57663,0.05883,1,490003829E,"66, N8"
Beehive Lane,51.58098,0.05902,1,490008200W,"123, 179, 462, 679"
Begbie Road,51.47142,0.03302,1,490003833W,386
Begbie Road,51.47177,0.03255,1,490003833E,386
Beggars Hill,51.358726,-0.249993,1,40004406063B,406
Beggars Hill,51.359026,-0.250785,1,40004406063A,406
Belfairs Drive,51.56955,0.12482,1,490011541E,"362, 86, N86"
Belgrave Avenue,51.58699,0.21113,1,490003835S,"496, 674"
Belgrave Avenue,51.58736,0.21109,1,490003835N,"496, 674"
Belgrave Close,51.39349,0.11708,1,490003836W,"B14, R6"
Belgrave Road,51.49049,-0.13866,1,490003837N,24
Belgrave Road,51.49076,-0.13884,1,490003837S,24
Belgrave Walk Tram Stop,51.39931,-0.1794,1,490002014W,201
Belgrave Walk Tram Stop,51.39936,-0.17968,1,490002014E,201
Belgravia Police Station,51.49169,-0.14941,1,490003838X,C1
Bell Corner / Hounslow Civic Centre,51.46817,-0.36691,1,490008391X,"203, 222, 81, E8, H22, H32, H98, N9"
Bell Corner / Hounslow Civic Centre,51.46855,-0.36639,1,490008391N,"120, 203, 222, 81, E8, H20, H22, H32, H98, N9"
Bell Corner / Hounslow Civic Centre,51.46856,-0.36692,1,490008391Y,"120, H20"
Bell Green,51.43091,-0.03825,1,490003091N,356
Bell Green / Sainsbury's,51.43061,-0.0356,1,490003849W1,"181, 194, 352, 356, 450"
Bell Green / Sainsbury's,51.43062,-0.03511,1,490003849W2,"181, 352, 356"
Bell Green / Sainsbury's,51.43067,-0.03473,1,490003849W3,181
Bell Green / Sainsbury's,51.43076,-0.03463,1,490003849E1,"194, 352, 450"
Bell Green / Southend Lane,51.42949,-0.0375,1,490003848N1,"181, 194, 202, 352, 356, 450"
Bell Green / Southend Lane,51.42961,-0.03724,1,490003848S,"181, 194, 202, 352, 356, 450"
Bell Lane,51.58573,-0.22001,1,490003853X,"183, 240"
Bell Lane,51.58621,-0.2201,1,490003853W,"183, 240"
Bell Road,51.46473,-0.36475,1,490003854E,"110, 111, H28"
Bell Road,51.46583,-0.3642,1,490003854S,"110, 111, H20, H28"
Bell Road,51.66055,-0.07911,1,490005247S,W8
Bell Road,51.66083,-0.0792,1,490005247N,W8
Bellamy Drive,51.60259,-0.31418,1,490013953W,186
Bellamy Drive,51.60307,-0.31338,1,490003840E,186
Belle Vue Road,51.60101,0.17184,1,490003843W,"175, 375, 651"
Belle Vue Road,51.60133,0.17234,1,490003843E,"175, 375, 651"
Bellegrove Road / Churchfield Road,51.46257,0.10667,1,490014351P,"486, 51, 625, 658, 89, B15, B16, N89"
Bellegrove Road / Sherwood Road,51.46543,0.08889,1,490012086W,"486, 89, N89"
Bellegrove Road / Sherwood Road,51.46545,0.08953,1,490012086E,"486, 89, N89"
Bellegrove Road / Welling Way,51.46462,0.09363,1,490014364F,"486, 89, N89"
Bellegrove Road / Welling Way,51.46481,0.09351,1,490014364E,"486, 89, N89"
Bellenden Road School,51.46633,-0.07356,1,490003841E,P13
Bellenden Road School,51.46636,-0.0733,1,490003841W,P13
Bellevue Road,51.61454,-0.14955,1,490003846W,"221, 382"
Bellevue Road,51.61482,-0.1484,1,490003846E,"221, 382"
Bellevue Road / Trinity Road,51.444,-0.16776,1,490013044E,"319, 690, G1"
Bellingham Leisure Centre,51.43149,-0.02148,1,490002384LC,
Bellingham Rail Station,51.432913,-0.019331,0,910GBELNGHM,"136, 208, 320, 54, N136, N199, Southeastern, Thameslink"
Bellingham Road,51.43257,-0.01742,1,490003852A,"136, 208, 320, 54, N136, N199"
Bellingham Road,51.43393,-0.01763,1,490003852B,"136, 208, 320, 54, N136, N199"
Bellingham Station,51.43278,-0.01948,1,4900BELNGHM1,
Bellwood Road,51.45878,-0.04591,1,490003855S,P12
Bellwood Road,51.45907,-0.04595,1,490003855N,P12
Belmarsh Prison,51.4973,0.08987,1,490003857W,"244, 380, 472, 672"
Belmont / Station Road,51.34395,-0.20174,1,490003860W,S4
Belmont / Station Road,51.344,-0.2014,1,490003860E,S4
Belmont Avenue,51.64458,-0.15771,1,490003861W,307
Belmont Avenue,51.64513,-0.15618,1,490003861E,307
Belmont Avenue,51.65007,-0.15102,1,490020358E,384
Belmont Circle,51.60093,-0.31818,1,490003862E1,"186, H18, H19"
Belmont Circle,51.60153,-0.31784,1,490003862E2,"186, H18"
Belmont Health Centre,51.60081,-0.3208,1,490003863E,"186, H18"
Belmont Hill,51.46181,-0.00699,1,490003864N,"122, 178, 261, 273, 321, 621, N21"
Belmont Hill,51.46204,-0.00801,1,490003864M,"122, 178, 261, 273, 321, 621, N21"
Belmont Lane,51.60508,-0.31039,1,490003865W,186
Belmont Lane,51.60534,-0.30976,1,490003865E,186
Belmont Lane / Edgebury,51.42471,0.07245,1,490003866N1,162
Belmont Lane / Edgebury,51.42489,0.07266,1,490003866S1,162
Belmont Lane / Imperial Way,51.42606,0.07343,1,490008474S,162
Belmont Lane / Imperial Way,51.42627,0.07351,1,490008474N,162
Belmont Park,51.45923,-0.00349,1,490003868W,"122, 178, 261, 273, 321, 621, N21"
Belmont Park,51.45988,-0.00403,1,490003868E,"122, 178, 261, 273, 321, 621, N21"
Belmont Road,51.54743,-0.47974,1,490015585E,"222, 331, 427, N207, U1, U10, U3, U4, U5, U7, U9"
Belmont Road,51.54787,-0.47832,1,490000246E,"222, 331, 427, A10, N207, SL8, U1, U10, U2, U3, U4, U5, U7, U9"
Belmont Road,51.59069,-0.09215,1,490002212Z,W4
Belmont Station,51.34358,-0.19809,1,490003859N,
Belmont Station,51.34364,-0.19774,1,490003859N1,
Belmont Station,51.34365,-0.19721,1,490001020C,"S3, S4"
Belmont Station,51.34366,-0.19786,1,490001020D,"S3, S4"
Belmont Station  / Brighton Road,51.34425,-0.19755,1,490001020S,280
Belmont Station  / Brighton Road,51.34461,-0.1975,1,490001020N,280
Belmore Parade,51.5197,-0.41339,1,490003873L,"427, 696, 697, 90, N207, U7"
Belmore Parade,51.51973,-0.41398,1,490003873M,"427, 696, 697, 90, N207, U7"
Belsize Avenue,51.55005,-0.16845,1,490003874J,268
Belsize Lane,51.54667,-0.17576,1,490009643S,"46, 603"
Belsize Lane,51.54722,-0.17595,1,490009643N,"46, 603"
Belsize Park Station,51.5507,-0.16528,1,490000020K,"1, C11, N5"
Belsize Park Station,51.55075,-0.16519,1,490000020L,"1, C11, N5"
Belsize Road,51.53897,-0.18647,1,490003027N,"139, 189"
Belsize Road,51.5402,-0.1879,1,490003027S,"139, 189"
Belsize Road,51.60993,-0.34663,1,490003847W,182
Belsize Road,51.61015,-0.34636,1,490003847E,182
Belsize Square,51.54736,-0.17245,1,490003878W,268
Belsize Square,51.54779,-0.17232,1,490003878E,268
Belsize Village,51.549,-0.16955,1,490003879W,268
Belsize Village,51.54929,-0.16992,1,490003879E,268
Belthorn Crescent,51.44634,-0.13995,1,490020149E,255
Belthorn Crescent,51.44638,-0.14014,1,490020150W,255
Belvedere,51.49198,0.15231,1,4900BELVEDR2,
Belvedere,51.49239,0.15233,1,4900BELVEDR1,
Belvedere Avenue,51.42743,-0.21467,1,490016257S,493
Belvedere Avenue,51.42746,-0.21487,1,490016257N,493
Belvedere Court,51.58414,-0.16962,1,490003881W,102
Belvedere Court,51.58448,-0.17052,1,490003881E,102
Belvedere Place,51.46,-0.12024,1,490003071W,"35, 355, 37, 690, P5"
Belvedere Place,51.46023,-0.11982,1,490003071E,"35, 355, 37, 690, P5"
Belvedere Rail Station,51.492118,0.152286,0,910GBELVEDR,"180, 229, 401, 469, 601, 602, 669, Southeastern, Thameslink"
Belvedere Road,51.41402,-0.07336,1,490003884N,410
Belvedere Road,51.41421,-0.07264,1,490003884S,410
Belvedere Road,51.4674,0.14279,1,490009326W,"301, 401, 601"
Belvoir Road,51.44484,-0.06579,1,490009794S2,P13
Belvoir Road,51.44601,-0.06551,1,490015714N,P13
Belvue Road,51.54684,-0.36829,1,490018762W,E10
Belvue School,51.54221,-0.36697,1,490003886S,E10
Belvue School,51.54227,-0.36741,1,490003886N,E10
Benbow Waye,51.52553,-0.48264,1,490003887S,222
Benbow Waye,51.526,-0.4829,1,490003887W,222
Bendish Road,51.53754,0.05171,1,490003888N,"101, 147, 238, 300, 304, 325, 376, 474"
Bendish Road,51.53811,0.05138,1,490003888D,"101, 147, 238, 300, 304, 325, 376, 474"
Bengal Road,51.55538,0.0716,1,490003890N,"169, EL1"
Bengarth Road / Northolt Library,51.53919,-0.38598,1,490003891N,"120, 140, 282, 90, N140, N7"
Bengarth Road / Northolt Library,51.53961,-0.38434,1,490003891S,"120, 140, 282, 90, N140, N7"
Benhill Avenue,51.36717,-0.19331,1,490003892E,"151, 164, 213, 280, 413, 470, 613, 80, N44, S1, S3"
Benhill Avenue / Throwley Way,51.36608,-0.19346,1,490013651H,"154, S2"
Benhill Avenue / Throwley Way,51.36688,-0.19228,1,490013651F,"154, S2"
Benhill Road,51.36553,-0.18303,1,490003893W,"154, S3"
Benhill Road,51.36576,-0.18229,1,490003893E,"154, S3"
Benhill Wood Road,51.36641,-0.18829,1,490003895W,"154, S2"
Benhill Wood Road,51.36678,-0.18968,1,490003895E,"154, S2"
Bennetsfield Road,51.51171,-0.44607,1,490012827E,"350, A10, U5"
